[
  {
    "geonameid": "3041563",
    "country": "AD",
    "name": "Andorra la Vella",
    "lat": "42.50779",
    "lng": "1.52109"
  },
  {
    "geonameid": "290594",
    "country": "AE",
    "name": "Umm Al Quwain City",
    "lat": "25.56473",
    "lng": "55.55517"
  },
  {
    "geonameid": "291074",
    "country": "AE",
    "name": "Ras Al Khaimah City",
    "lat": "25.78953",
    "lng": "55.9432"
  },
  {
    "geonameid": "291580",
    "country": "AE",
    "name": "Zayed City",
    "lat": "23.65416",
    "lng": "53.70522"
  },
  {
    "geonameid": "291696",
    "country": "AE",
    "name": "Khawr Fakkān",
    "lat": "25.33132",
    "lng": "56.34199"
  },
  {
    "geonameid": "292223",
    "country": "AE",
    "name": "Dubai",
    "lat": "25.07725",
    "lng": "55.30927"
  },
  {
    "geonameid": "292231",
    "country": "AE",
    "name": "Dibba Al-Fujairah",
    "lat": "25.59246",
    "lng": "56.26176"
  },
  {
    "geonameid": "292239",
    "country": "AE",
    "name": "Dibba Al-Hisn",
    "lat": "25.61955",
    "lng": "56.27291"
  },
  {
    "geonameid": "292672",
    "country": "AE",
    "name": "Sharjah",
    "lat": "25.33737",
    "lng": "55.41206"
  },
  {
    "geonameid": "292688",
    "country": "AE",
    "name": "Ar Ruways",
    "lat": "24.11028",
    "lng": "52.73056"
  },
  {
    "geonameid": "292878",
    "country": "AE",
    "name": "Al Fujairah City",
    "lat": "25.11641",
    "lng": "56.34141"
  },
  {
    "geonameid": "292913",
    "country": "AE",
    "name": "Al Ain City",
    "lat": "24.19167",
    "lng": "55.76056"
  },
  {
    "geonameid": "292932",
    "country": "AE",
    "name": "Ajman City",
    "lat": "25.40177",
    "lng": "55.47878"
  },
  {
    "geonameid": "292953",
    "country": "AE",
    "name": "Adh Dhayd",
    "lat": "25.28812",
    "lng": "55.88157"
  },
  {
    "geonameid": "292968",
    "country": "AE",
    "name": "Abu Dhabi",
    "lat": "24.45118",
    "lng": "54.39696"
  },
  {
    "geonameid": "8057551",
    "country": "AE",
    "name": "Khalifah A City",
    "lat": "24.42588",
    "lng": "54.605"
  },
  {
    "geonameid": "12042052",
    "country": "AE",
    "name": "Bani Yas City",
    "lat": "24.30978",
    "lng": "54.62944"
  },
  {
    "geonameid": "12042053",
    "country": "AE",
    "name": "Musaffah",
    "lat": "24.35893",
    "lng": "54.48267"
  },
  {
    "geonameid": "12047416",
    "country": "AE",
    "name": "Al Shamkhah City",
    "lat": "24.39268",
    "lng": "54.70779"
  },
  {
    "geonameid": "12047417",
    "country": "AE",
    "name": "Reef Al Fujairah City",
    "lat": "25.14479",
    "lng": "56.24764"
  },
  {
    "geonameid": "1120985",
    "country": "AF",
    "name": "Zaranj",
    "lat": "30.95962",
    "lng": "61.86037"
  },
  {
    "geonameid": "1121381",
    "country": "AF",
    "name": "Bāzār-e Yakāwlang",
    "lat": "34.73525",
    "lng": "66.97379"
  },
  {
    "geonameid": "1123004",
    "country": "AF",
    "name": "Taloqan",
    "lat": "36.73605",
    "lng": "69.53451"
  },
  {
    "geonameid": "1125155",
    "country": "AF",
    "name": "Shīnḏanḏ",
    "lat": "33.30294",
    "lng": "62.1474"
  },
  {
    "geonameid": "1125444",
    "country": "AF",
    "name": "Shibirghān",
    "lat": "36.66757",
    "lng": "65.7529"
  },
  {
    "geonameid": "1125896",
    "country": "AF",
    "name": "Shahrak",
    "lat": "34.10737",
    "lng": "64.3052"
  },
  {
    "geonameid": "1127110",
    "country": "AF",
    "name": "Sar-e Pul",
    "lat": "36.21544",
    "lng": "65.93249"
  },
  {
    "geonameid": "1127628",
    "country": "AF",
    "name": "Sang-e Chārak",
    "lat": "35.84972",
    "lng": "66.43694"
  },
  {
    "geonameid": "1127768",
    "country": "AF",
    "name": "Aībak",
    "lat": "36.26468",
    "lng": "68.01551"
  },
  {
    "geonameid": "1128265",
    "country": "AF",
    "name": "Rustāq",
    "lat": "37.12604",
    "lng": "69.83045"
  },
  {
    "geonameid": "1129516",
    "country": "AF",
    "name": "Qarqīn",
    "lat": "37.41853",
    "lng": "66.04358"
  },
  {
    "geonameid": "1129648",
    "country": "AF",
    "name": "Qarāwul",
    "lat": "37.21959",
    "lng": "68.7802"
  },
  {
    "geonameid": "1130490",
    "country": "AF",
    "name": "Pul-e Khumrī",
    "lat": "35.94458",
    "lng": "68.71512"
  },
  {
    "geonameid": "1131316",
    "country": "AF",
    "name": "Paghmān",
    "lat": "34.58787",
    "lng": "68.95091"
  },
  {
    "geonameid": "1132495",
    "country": "AF",
    "name": "Nahrīn",
    "lat": "36.0649",
    "lng": "69.13343"
  },
  {
    "geonameid": "1133453",
    "country": "AF",
    "name": "Maymana",
    "lat": "35.92139",
    "lng": "64.78361"
  },
  {
    "geonameid": "1133574",
    "country": "AF",
    "name": "Mehtar Lām",
    "lat": "34.67139",
    "lng": "70.20944"
  },
  {
    "geonameid": "1133616",
    "country": "AF",
    "name": "Mazār-e Sharīf",
    "lat": "36.70904",
    "lng": "67.11087"
  },
  {
    "geonameid": "1134720",
    "country": "AF",
    "name": "Lashkar Gāh",
    "lat": "31.59382",
    "lng": "64.37161"
  },
  {
    "geonameid": "1135158",
    "country": "AF",
    "name": "Kushk",
    "lat": "33.29565",
    "lng": "61.95221"
  },
  {
    "geonameid": "1135689",
    "country": "AF",
    "name": "Kunduz",
    "lat": "36.72895",
    "lng": "68.857"
  },
  {
    "geonameid": "1136469",
    "country": "AF",
    "name": "Khōst",
    "lat": "33.33951",
    "lng": "69.92041"
  },
  {
    "geonameid": "1136575",
    "country": "AF",
    "name": "Khulm",
    "lat": "36.69736",
    "lng": "67.69826"
  },
  {
    "geonameid": "1136863",
    "country": "AF",
    "name": "Khāsh",
    "lat": "31.52919",
    "lng": "62.79055"
  },
  {
    "geonameid": "1137168",
    "country": "AF",
    "name": "Khanabad",
    "lat": "36.68304",
    "lng": "69.11279"
  },
  {
    "geonameid": "1137807",
    "country": "AF",
    "name": "Karukh",
    "lat": "34.48108",
    "lng": "62.5863"
  },
  {
    "geonameid": "1138336",
    "country": "AF",
    "name": "Kandahār",
    "lat": "31.61332",
    "lng": "65.71013"
  },
  {
    "geonameid": "1138958",
    "country": "AF",
    "name": "Kabul",
    "lat": "34.52813",
    "lng": "69.17233"
  },
  {
    "geonameid": "1139715",
    "country": "AF",
    "name": "Jalālābād",
    "lat": "34.42647",
    "lng": "70.45153"
  },
  {
    "geonameid": "1139807",
    "country": "AF",
    "name": "Jabal os Saraj",
    "lat": "35.11833",
    "lng": "69.23778"
  },
  {
    "geonameid": "1140026",
    "country": "AF",
    "name": "Herāt",
    "lat": "34.34817",
    "lng": "62.19967"
  },
  {
    "geonameid": "1141089",
    "country": "AF",
    "name": "Ghormach",
    "lat": "35.73062",
    "lng": "63.78264"
  },
  {
    "geonameid": "1141269",
    "country": "AF",
    "name": "Ghazni",
    "lat": "33.55391",
    "lng": "68.42096"
  },
  {
    "geonameid": "1141540",
    "country": "AF",
    "name": "Gereshk",
    "lat": "31.82089",
    "lng": "64.57005"
  },
  {
    "geonameid": "1141857",
    "country": "AF",
    "name": "Gardez",
    "lat": "33.59744",
    "lng": "69.22592"
  },
  {
    "geonameid": "1142170",
    "country": "AF",
    "name": "Fayzabad",
    "lat": "37.11664",
    "lng": "70.58002"
  },
  {
    "geonameid": "1142264",
    "country": "AF",
    "name": "Farah",
    "lat": "32.37451",
    "lng": "62.11638"
  },
  {
    "geonameid": "1142404",
    "country": "AF",
    "name": "Kafir Qala",
    "lat": "34.66667",
    "lng": "61.06667"
  },
  {
    "geonameid": "1145352",
    "country": "AF",
    "name": "Charikar",
    "lat": "35.01361",
    "lng": "69.17139"
  },
  {
    "geonameid": "1147066",
    "country": "AF",
    "name": "Baraki Barak",
    "lat": "33.96744",
    "lng": "68.9492"
  },
  {
    "geonameid": "1147242",
    "country": "AF",
    "name": "Bāmyān",
    "lat": "34.82156",
    "lng": "67.82734"
  },
  {
    "geonameid": "1147290",
    "country": "AF",
    "name": "Balkh",
    "lat": "36.75635",
    "lng": "66.8972"
  },
  {
    "geonameid": "1147540",
    "country": "AF",
    "name": "Baghlān",
    "lat": "36.13068",
    "lng": "68.70829"
  },
  {
    "geonameid": "1148106",
    "country": "AF",
    "name": "Ārt Khwājah",
    "lat": "37.08571",
    "lng": "69.47958"
  },
  {
    "geonameid": "1148205",
    "country": "AF",
    "name": "Āsmār",
    "lat": "35.03333",
    "lng": "71.35809"
  },
  {
    "geonameid": "1148311",
    "country": "AF",
    "name": "Asadābād",
    "lat": "34.87311",
    "lng": "71.14697"
  },
  {
    "geonameid": "1148658",
    "country": "AF",
    "name": "Andkhōy",
    "lat": "36.95293",
    "lng": "65.12376"
  },
  {
    "geonameid": "1429434",
    "country": "AF",
    "name": "Bāzārak",
    "lat": "35.31292",
    "lng": "69.51519"
  },
  {
    "geonameid": "1469706",
    "country": "AF",
    "name": "Markaz-e Woluswalī-ye Āchīn",
    "lat": "34.12583",
    "lng": "70.70778"
  },
  {
    "geonameid": "3576022",
    "country": "AG",
    "name": "Saint John’s",
    "lat": "17.12096",
    "lng": "-61.84329"
  },
  {
    "geonameid": "3573374",
    "country": "AI",
    "name": "The Valley",
    "lat": "18.21704",
    "lng": "-63.05783"
  },
  {
    "geonameid": "363243",
    "country": "AL",
    "name": "Sarandë",
    "lat": "39.87534",
    "lng": "20.00477"
  },
  {
    "geonameid": "781988",
    "country": "AL",
    "name": "Pogradec",
    "lat": "40.9025",
    "lng": "20.6525"
  },
  {
    "geonameid": "782661",
    "country": "AL",
    "name": "Kukës",
    "lat": "42.07694",
    "lng": "20.42194"
  },
  {
    "geonameid": "782756",
    "country": "AL",
    "name": "Korçë",
    "lat": "40.61861",
    "lng": "20.78083"
  },
  {
    "geonameid": "783148",
    "country": "AL",
    "name": "Gjirokastër",
    "lat": "40.07583",
    "lng": "20.13889"
  },
  {
    "geonameid": "783263",
    "country": "AL",
    "name": "Elbasan",
    "lat": "41.1125",
    "lng": "20.08222"
  },
  {
    "geonameid": "783493",
    "country": "AL",
    "name": "Burrel",
    "lat": "41.61028",
    "lng": "20.00889"
  },
  {
    "geonameid": "3183719",
    "country": "AL",
    "name": "Vlorë",
    "lat": "40.4686",
    "lng": "19.48318"
  },
  {
    "geonameid": "3183875",
    "country": "AL",
    "name": "Tirana",
    "lat": "41.3275",
    "lng": "19.81889"
  },
  {
    "geonameid": "3184081",
    "country": "AL",
    "name": "Shkodër",
    "lat": "42.06828",
    "lng": "19.51258"
  },
  {
    "geonameid": "3184517",
    "country": "AL",
    "name": "Patos Fshat",
    "lat": "40.64278",
    "lng": "19.65083"
  },
  {
    "geonameid": "3184518",
    "country": "AL",
    "name": "Patos",
    "lat": "40.68333",
    "lng": "19.61944"
  },
  {
    "geonameid": "3184862",
    "country": "AL",
    "name": "Lushnjë",
    "lat": "40.94194",
    "lng": "19.705"
  },
  {
    "geonameid": "3184935",
    "country": "AL",
    "name": "Lezhë",
    "lat": "41.78361",
    "lng": "19.64361"
  },
  {
    "geonameid": "3185012",
    "country": "AL",
    "name": "Laç",
    "lat": "41.63556",
    "lng": "19.71306"
  },
  {
    "geonameid": "3185082",
    "country": "AL",
    "name": "Krujë",
    "lat": "41.50917",
    "lng": "19.79278"
  },
  {
    "geonameid": "3185211",
    "country": "AL",
    "name": "Kavajë",
    "lat": "41.18556",
    "lng": "19.55694"
  },
  {
    "geonameid": "3185670",
    "country": "AL",
    "name": "Fier-Çifçi",
    "lat": "40.71667",
    "lng": "19.56667"
  },
  {
    "geonameid": "3185672",
    "country": "AL",
    "name": "Fier",
    "lat": "40.72389",
    "lng": "19.55611"
  },
  {
    "geonameid": "3185728",
    "country": "AL",
    "name": "Durrës",
    "lat": "41.32355",
    "lng": "19.45469"
  },
  {
    "geonameid": "3186084",
    "country": "AL",
    "name": "Berat",
    "lat": "40.70583",
    "lng": "19.95222"
  },
  {
    "geonameid": "174875",
    "country": "AM",
    "name": "Kapan",
    "lat": "39.20755",
    "lng": "46.40576"
  },
  {
    "geonameid": "174895",
    "country": "AM",
    "name": "Goris",
    "lat": "39.51111",
    "lng": "46.34168"
  },
  {
    "geonameid": "174972",
    "country": "AM",
    "name": "Hats’avan",
    "lat": "39.46405",
    "lng": "45.97047"
  },
  {
    "geonameid": "174979",
    "country": "AM",
    "name": "Artashat",
    "lat": "39.96144",
    "lng": "44.54447"
  },
  {
    "geonameid": "174991",
    "country": "AM",
    "name": "Ararat",
    "lat": "39.83069",
    "lng": "44.70569"
  },
  {
    "geonameid": "616052",
    "country": "AM",
    "name": "Yerevan",
    "lat": "40.18111",
    "lng": "44.51361"
  },
  {
    "geonameid": "616062",
    "country": "AM",
    "name": "Vagharshapat",
    "lat": "40.16557",
    "lng": "44.29462"
  },
  {
    "geonameid": "616194",
    "country": "AM",
    "name": "Stepanavan",
    "lat": "41.00995",
    "lng": "44.38531"
  },
  {
    "geonameid": "616199",
    "country": "AM",
    "name": "Spitak",
    "lat": "40.83221",
    "lng": "44.26731"
  },
  {
    "geonameid": "616250",
    "country": "AM",
    "name": "Sevan",
    "lat": "40.5473",
    "lng": "44.94171"
  },
  {
    "geonameid": "616435",
    "country": "AM",
    "name": "Masis",
    "lat": "40.06572",
    "lng": "44.41913"
  },
  {
    "geonameid": "616530",
    "country": "AM",
    "name": "Vanadzor",
    "lat": "40.80456",
    "lng": "44.4939"
  },
  {
    "geonameid": "616599",
    "country": "AM",
    "name": "Gavar",
    "lat": "40.35398",
    "lng": "45.12386"
  },
  {
    "geonameid": "616629",
    "country": "AM",
    "name": "Hrazdan",
    "lat": "40.49748",
    "lng": "44.7662"
  },
  {
    "geonameid": "616631",
    "country": "AM",
    "name": "Armavir",
    "lat": "40.15446",
    "lng": "44.03815"
  },
  {
    "geonameid": "616635",
    "country": "AM",
    "name": "Gyumri",
    "lat": "40.7942",
    "lng": "43.84528"
  },
  {
    "geonameid": "616785",
    "country": "AM",
    "name": "Ch’arents’avan",
    "lat": "40.40289",
    "lng": "44.64447"
  },
  {
    "geonameid": "616877",
    "country": "AM",
    "name": "Ashtarak",
    "lat": "40.2991",
    "lng": "44.36204"
  },
  {
    "geonameid": "617026",
    "country": "AM",
    "name": "Abovyan",
    "lat": "40.27368",
    "lng": "44.63348"
  },
  {
    "geonameid": "145531",
    "country": "AO",
    "name": "Saurimo",
    "lat": "-9.66078",
    "lng": "20.39155"
  },
  {
    "geonameid": "145724",
    "country": "AO",
    "name": "Lucapa",
    "lat": "-8.41915",
    "lng": "20.74466"
  },
  {
    "geonameid": "876177",
    "country": "AO",
    "name": "Luau",
    "lat": "-10.70727",
    "lng": "22.22466"
  },
  {
    "geonameid": "2236568",
    "country": "AO",
    "name": "Uíge",
    "lat": "-7.60874",
    "lng": "15.06131"
  },
  {
    "geonameid": "2236967",
    "country": "AO",
    "name": "Soio",
    "lat": "-6.1349",
    "lng": "12.36894"
  },
  {
    "geonameid": "2239001",
    "country": "AO",
    "name": "N'zeto",
    "lat": "-7.23116",
    "lng": "12.8666"
  },
  {
    "geonameid": "2239076",
    "country": "AO",
    "name": "N’dalatando",
    "lat": "-9.29782",
    "lng": "14.91162"
  },
  {
    "geonameid": "2239520",
    "country": "AO",
    "name": "Mbanza Kongo",
    "lat": "-6.26667",
    "lng": "14.23833"
  },
  {
    "geonameid": "2239862",
    "country": "AO",
    "name": "Malanje",
    "lat": "-9.54015",
    "lng": "16.34096"
  },
  {
    "geonameid": "2240449",
    "country": "AO",
    "name": "Luanda",
    "lat": "-8.83682",
    "lng": "13.23432"
  },
  {
    "geonameid": "2242001",
    "country": "AO",
    "name": "Caxito",
    "lat": "-8.57848",
    "lng": "13.66425"
  },
  {
    "geonameid": "2243271",
    "country": "AO",
    "name": "Cabinda",
    "lat": "-5.55",
    "lng": "12.2"
  },
  {
    "geonameid": "3346015",
    "country": "AO",
    "name": "Sumbe",
    "lat": "-11.20605",
    "lng": "13.84371"
  },
  {
    "geonameid": "3347019",
    "country": "AO",
    "name": "Moçâmedes",
    "lat": "-15.19611",
    "lng": "12.15222"
  },
  {
    "geonameid": "3347353",
    "country": "AO",
    "name": "Menongue",
    "lat": "-14.6585",
    "lng": "17.69099"
  },
  {
    "geonameid": "3347719",
    "country": "AO",
    "name": "Luena",
    "lat": "-11.78333",
    "lng": "19.91667"
  },
  {
    "geonameid": "3347762",
    "country": "AO",
    "name": "Lubango",
    "lat": "-14.91717",
    "lng": "13.4925"
  },
  {
    "geonameid": "3347853",
    "country": "AO",
    "name": "Longonjo",
    "lat": "-12.90795",
    "lng": "15.24845"
  },
  {
    "geonameid": "3347939",
    "country": "AO",
    "name": "Lobito",
    "lat": "-12.3644",
    "lng": "13.53601"
  },
  {
    "geonameid": "3348078",
    "country": "AO",
    "name": "Cuito",
    "lat": "-12.38333",
    "lng": "16.93333"
  },
  {
    "geonameid": "3348313",
    "country": "AO",
    "name": "Huambo",
    "lat": "-12.77611",
    "lng": "15.73917"
  },
  {
    "geonameid": "3350246",
    "country": "AO",
    "name": "Catumbela",
    "lat": "-12.43002",
    "lng": "13.54677"
  },
  {
    "geonameid": "3350372",
    "country": "AO",
    "name": "Catabola",
    "lat": "-12.15",
    "lng": "17.28333"
  },
  {
    "geonameid": "3351014",
    "country": "AO",
    "name": "Camacupa",
    "lat": "-12.01667",
    "lng": "17.48333"
  },
  {
    "geonameid": "3351500",
    "country": "AO",
    "name": "Caála",
    "lat": "-12.8525",
    "lng": "15.56056"
  },
  {
    "geonameid": "3351663",
    "country": "AO",
    "name": "Benguela",
    "lat": "-12.57626",
    "lng": "13.40547"
  },
  {
    "geonameid": "3427213",
    "country": "AR",
    "name": "Zárate",
    "lat": "-34.09814",
    "lng": "-59.02858"
  },
  {
    "geonameid": "3427327",
    "country": "AR",
    "name": "Wanda",
    "lat": "-25.96879",
    "lng": "-54.56285"
  },
  {
    "geonameid": "3427387",
    "country": "AR",
    "name": "Villa Ortúzar",
    "lat": "-34.57973",
    "lng": "-58.46829"
  },
  {
    "geonameid": "3427388",
    "country": "AR",
    "name": "Villa Ocampo",
    "lat": "-28.48752",
    "lng": "-59.35515"
  },
  {
    "geonameid": "3427408",
    "country": "AR",
    "name": "Villa Lugano",
    "lat": "-34.67907",
    "lng": "-58.47263"
  },
  {
    "geonameid": "3427428",
    "country": "AR",
    "name": "Villaguay",
    "lat": "-31.8653",
    "lng": "-59.02689"
  },
  {
    "geonameid": "3427431",
    "country": "AR",
    "name": "Villa Gesell",
    "lat": "-37.26394",
    "lng": "-56.97304"
  },
  {
    "geonameid": "3427453",
    "country": "AR",
    "name": "Villa de Mayo",
    "lat": "-34.5108",
    "lng": "-58.68059"
  },
  {
    "geonameid": "3427687",
    "country": "AR",
    "name": "Tortuguitas",
    "lat": "-34.47513",
    "lng": "-58.75367"
  },
  {
    "geonameid": "3427761",
    "country": "AR",
    "name": "Tigre",
    "lat": "-34.42603",
    "lng": "-58.57962"
  },
  {
    "geonameid": "3427833",
    "country": "AR",
    "name": "Tandil",
    "lat": "-37.32167",
    "lng": "-59.13316"
  },
  {
    "geonameid": "3428068",
    "country": "AR",
    "name": "San Vicente",
    "lat": "-26.61667",
    "lng": "-54.13333"
  },
  {
    "geonameid": "3428071",
    "country": "AR",
    "name": "Santo Tomé",
    "lat": "-28.54939",
    "lng": "-56.04077"
  },
  {
    "geonameid": "3428075",
    "country": "AR",
    "name": "Santos Lugares",
    "lat": "-34.60379",
    "lng": "-58.5461"
  },
  {
    "geonameid": "3428359",
    "country": "AR",
    "name": "Santa Elena",
    "lat": "-30.94432",
    "lng": "-59.78832"
  },
  {
    "geonameid": "3428576",
    "country": "AR",
    "name": "San Pedro",
    "lat": "-33.67918",
    "lng": "-59.66633"
  },
  {
    "geonameid": "3428577",
    "country": "AR",
    "name": "San Pedro",
    "lat": "-26.62207",
    "lng": "-54.10842"
  },
  {
    "geonameid": "3428708",
    "country": "AR",
    "name": "San Luis del Palmar",
    "lat": "-27.5079",
    "lng": "-58.55454"
  },
  {
    "geonameid": "3428759",
    "country": "AR",
    "name": "San Lorenzo",
    "lat": "-28.13306",
    "lng": "-58.76733"
  },
  {
    "geonameid": "3428975",
    "country": "AR",
    "name": "San Javier",
    "lat": "-30.57781",
    "lng": "-59.9317"
  },
  {
    "geonameid": "3428992",
    "country": "AR",
    "name": "San Isidro",
    "lat": "-34.4721",
    "lng": "-58.52708"
  },
  {
    "geonameid": "3429403",
    "country": "AR",
    "name": "Saladas",
    "lat": "-28.25384",
    "lng": "-58.62591"
  },
  {
    "geonameid": "3429576",
    "country": "AR",
    "name": "Retiro",
    "lat": "-34.58333",
    "lng": "-58.38333"
  },
  {
    "geonameid": "3429577",
    "country": "AR",
    "name": "Resistencia",
    "lat": "-27.46056",
    "lng": "-58.98389"
  },
  {
    "geonameid": "3429594",
    "country": "AR",
    "name": "Reconquista",
    "lat": "-29.15",
    "lng": "-59.65"
  },
  {
    "geonameid": "3429652",
    "country": "AR",
    "name": "Quilmes",
    "lat": "-34.72904",
    "lng": "-58.26374"
  },
  {
    "geonameid": "3429732",
    "country": "AR",
    "name": "Puerto Rico",
    "lat": "-26.79598",
    "lng": "-55.02402"
  },
  {
    "geonameid": "3429777",
    "country": "AR",
    "name": "Puerto Iguazú",
    "lat": "-25.59912",
    "lng": "-54.57355"
  },
  {
    "geonameid": "3429786",
    "country": "AR",
    "name": "Puerto Esperanza",
    "lat": "-26.02267",
    "lng": "-54.61356"
  },
  {
    "geonameid": "3429790",
    "country": "AR",
    "name": "Puerto Eldorado",
    "lat": "-26.40843",
    "lng": "-54.69463"
  },
  {
    "geonameid": "3429886",
    "country": "AR",
    "name": "Posadas",
    "lat": "-27.36708",
    "lng": "-55.89608"
  },
  {
    "geonameid": "3429902",
    "country": "AR",
    "name": "Pontevedra",
    "lat": "-34.74785",
    "lng": "-58.70072"
  },
  {
    "geonameid": "3429949",
    "country": "AR",
    "name": "Pirané",
    "lat": "-25.73239",
    "lng": "-59.10879"
  },
  {
    "geonameid": "3429980",
    "country": "AR",
    "name": "Pilar",
    "lat": "-34.45866",
    "lng": "-58.9142"
  },
  {
    "geonameid": "3430104",
    "country": "AR",
    "name": "Paso de los Libres",
    "lat": "-29.71251",
    "lng": "-57.08771"
  },
  {
    "geonameid": "3430340",
    "country": "AR",
    "name": "Oberá",
    "lat": "-27.48706",
    "lng": "-55.11994"
  },
  {
    "geonameid": "3430443",
    "country": "AR",
    "name": "Necochea",
    "lat": "-38.5545",
    "lng": "-58.73961"
  },
  {
    "geonameid": "3430513",
    "country": "AR",
    "name": "Muñiz",
    "lat": "-34.55622",
    "lng": "-58.70739"
  },
  {
    "geonameid": "3430545",
    "country": "AR",
    "name": "Morón",
    "lat": "-34.6509",
    "lng": "-58.61956"
  },
  {
    "geonameid": "3430598",
    "country": "AR",
    "name": "Monte Caseros",
    "lat": "-30.25359",
    "lng": "-57.63626"
  },
  {
    "geonameid": "3430601",
    "country": "AR",
    "name": "Montecarlo",
    "lat": "-26.5662",
    "lng": "-54.757"
  },
  {
    "geonameid": "3430697",
    "country": "AR",
    "name": "Merlo",
    "lat": "-34.66627",
    "lng": "-58.72927"
  },
  {
    "geonameid": "3430708",
    "country": "AR",
    "name": "Mercedes",
    "lat": "-34.65145",
    "lng": "-59.43068"
  },
  {
    "geonameid": "3430709",
    "country": "AR",
    "name": "Mercedes",
    "lat": "-29.18416",
    "lng": "-58.07519"
  },
  {
    "geonameid": "3430863",
    "country": "AR",
    "name": "Mar del Plata",
    "lat": "-38.00042",
    "lng": "-57.5562"
  },
  {
    "geonameid": "3430988",
    "country": "AR",
    "name": "Luján",
    "lat": "-34.57028",
    "lng": "-59.105"
  },
  {
    "geonameid": "3431057",
    "country": "AR",
    "name": "Los Polvorines",
    "lat": "-34.50316",
    "lng": "-58.70596"
  },
  {
    "geonameid": "3432043",
    "country": "AR",
    "name": "La Plata",
    "lat": "-34.92145",
    "lng": "-57.95453"
  },
  {
    "geonameid": "3432079",
    "country": "AR",
    "name": "La Paz",
    "lat": "-30.74179",
    "lng": "-59.64517"
  },
  {
    "geonameid": "3433349",
    "country": "AR",
    "name": "Jardín América",
    "lat": "-27.04346",
    "lng": "-55.22698"
  },
  {
    "geonameid": "3433522",
    "country": "AR",
    "name": "Hurlingham",
    "lat": "-34.5904",
    "lng": "-58.62904"
  },
  {
    "geonameid": "3433658",
    "country": "AR",
    "name": "Gualeguaychú",
    "lat": "-33.00937",
    "lng": "-58.51722"
  },
  {
    "geonameid": "3433663",
    "country": "AR",
    "name": "Gualeguay",
    "lat": "-33.14156",
    "lng": "-59.30966"
  },
  {
    "geonameid": "3433715",
    "country": "AR",
    "name": "Goya",
    "lat": "-29.13995",
    "lng": "-59.26343"
  },
  {
    "geonameid": "3433753",
    "country": "AR",
    "name": "Gobernador Virasora",
    "lat": "-28.05",
    "lng": "-56.03333"
  },
  {
    "geonameid": "3433787",
    "country": "AR",
    "name": "General Pacheco",
    "lat": "-34.45256",
    "lng": "-58.64312"
  },
  {
    "geonameid": "3433803",
    "country": "AR",
    "name": "General José de San Martín",
    "lat": "-26.53743",
    "lng": "-59.34158"
  },
  {
    "geonameid": "3433836",
    "country": "AR",
    "name": "Garupá",
    "lat": "-27.48171",
    "lng": "-55.82921"
  },
  {
    "geonameid": "3433899",
    "country": "AR",
    "name": "Formosa",
    "lat": "-26.18489",
    "lng": "-58.17313"
  },
  {
    "geonameid": "3433901",
    "country": "AR",
    "name": "Fontana",
    "lat": "-27.41813",
    "lng": "-59.02392"
  },
  {
    "geonameid": "3433956",
    "country": "AR",
    "name": "Federal",
    "lat": "-30.95465",
    "lng": "-58.78326"
  },
  {
    "geonameid": "3434095",
    "country": "AR",
    "name": "Esquina",
    "lat": "-30.01476",
    "lng": "-59.5289"
  },
  {
    "geonameid": "3434291",
    "country": "AR",
    "name": "El Soberbio",
    "lat": "-27.29847",
    "lng": "-54.19877"
  },
  {
    "geonameid": "3435010",
    "country": "AR",
    "name": "Don Torcuato",
    "lat": "-34.49459",
    "lng": "-58.62729"
  },
  {
    "geonameid": "3435038",
    "country": "AR",
    "name": "Dolores",
    "lat": "-36.31321",
    "lng": "-57.67918"
  },
  {
    "geonameid": "3435103",
    "country": "AR",
    "name": "Curuzú Cuatiá",
    "lat": "-29.79171",
    "lng": "-58.0546"
  },
  {
    "geonameid": "3435217",
    "country": "AR",
    "name": "Corrientes",
    "lat": "-27.46784",
    "lng": "-58.8344"
  },
  {
    "geonameid": "3435261",
    "country": "AR",
    "name": "Concordia",
    "lat": "-31.39296",
    "lng": "-58.02089"
  },
  {
    "geonameid": "3435264",
    "country": "AR",
    "name": "Concepción del Uruguay",
    "lat": "-32.48463",
    "lng": "-58.23217"
  },
  {
    "geonameid": "3435356",
    "country": "AR",
    "name": "Colegiales",
    "lat": "-34.57365",
    "lng": "-58.44924"
  },
  {
    "geonameid": "3435486",
    "country": "AR",
    "name": "Chajarí",
    "lat": "-30.75048",
    "lng": "-57.97962"
  },
  {
    "geonameid": "3435810",
    "country": "AR",
    "name": "Campana",
    "lat": "-34.16327",
    "lng": "-58.95919"
  },
  {
    "geonameid": "3435910",
    "country": "AR",
    "name": "Buenos Aires",
    "lat": "-34.61315",
    "lng": "-58.37723"
  },
  {
    "geonameid": "3436003",
    "country": "AR",
    "name": "Boedo",
    "lat": "-34.63333",
    "lng": "-58.41667"
  },
  {
    "geonameid": "3436043",
    "country": "AR",
    "name": "Berazategui",
    "lat": "-34.76531",
    "lng": "-58.21278"
  },
  {
    "geonameid": "3436077",
    "country": "AR",
    "name": "Belgrano",
    "lat": "-34.5627",
    "lng": "-58.45829"
  },
  {
    "geonameid": "3436124",
    "country": "AR",
    "name": "Barranqueras",
    "lat": "-27.48132",
    "lng": "-58.93925"
  },
  {
    "geonameid": "3436134",
    "country": "AR",
    "name": "Barracas",
    "lat": "-34.64966",
    "lng": "-58.38341"
  },
  {
    "geonameid": "3436177",
    "country": "AR",
    "name": "Balcarce",
    "lat": "-37.84616",
    "lng": "-58.25522"
  },
  {
    "geonameid": "3436199",
    "country": "AR",
    "name": "Azul",
    "lat": "-36.77698",
    "lng": "-59.85854"
  },
  {
    "geonameid": "3436230",
    "country": "AR",
    "name": "Avellaneda",
    "lat": "-29.11761",
    "lng": "-59.65834"
  },
  {
    "geonameid": "3436287",
    "country": "AR",
    "name": "Aristóbulo del Valle",
    "lat": "-27.09625",
    "lng": "-54.89626"
  },
  {
    "geonameid": "3832132",
    "country": "AR",
    "name": "Zapala",
    "lat": "-38.89916",
    "lng": "-70.05442"
  },
  {
    "geonameid": "3832260",
    "country": "AR",
    "name": "Yerba Buena",
    "lat": "-26.81667",
    "lng": "-65.31667"
  },
  {
    "geonameid": "3832647",
    "country": "AR",
    "name": "Villa Regina",
    "lat": "-39.1",
    "lng": "-67.06667"
  },
  {
    "geonameid": "3832653",
    "country": "AR",
    "name": "Villa Paula de Sarmiento",
    "lat": "-31.4933",
    "lng": "-68.53838"
  },
  {
    "geonameid": "3832662",
    "country": "AR",
    "name": "Villa Nueva",
    "lat": "-32.43293",
    "lng": "-63.24763"
  },
  {
    "geonameid": "3832694",
    "country": "AR",
    "name": "Villa María",
    "lat": "-32.40751",
    "lng": "-63.24016"
  },
  {
    "geonameid": "3832756",
    "country": "AR",
    "name": "Villa Dolores",
    "lat": "-31.94585",
    "lng": "-65.18958"
  },
  {
    "geonameid": "3832778",
    "country": "AR",
    "name": "Villa Constitución",
    "lat": "-33.22778",
    "lng": "-60.3297"
  },
  {
    "geonameid": "3832791",
    "country": "AR",
    "name": "Villa Carlos Paz",
    "lat": "-31.42414",
    "lng": "-64.49778"
  },
  {
    "geonameid": "3832811",
    "country": "AR",
    "name": "Villa Ángela",
    "lat": "-27.57383",
    "lng": "-60.71526"
  },
  {
    "geonameid": "3832815",
    "country": "AR",
    "name": "Villa Allende",
    "lat": "-31.29458",
    "lng": "-64.29538"
  },
  {
    "geonameid": "3832899",
    "country": "AR",
    "name": "Viedma",
    "lat": "-40.81345",
    "lng": "-62.99668"
  },
  {
    "geonameid": "3832934",
    "country": "AR",
    "name": "Victoria",
    "lat": "-32.61841",
    "lng": "-60.15478"
  },
  {
    "geonameid": "3833027",
    "country": "AR",
    "name": "Vera",
    "lat": "-29.4593",
    "lng": "-60.21261"
  },
  {
    "geonameid": "3833062",
    "country": "AR",
    "name": "Venado Tuerto",
    "lat": "-33.74556",
    "lng": "-61.96885"
  },
  {
    "geonameid": "3833112",
    "country": "AR",
    "name": "Veinticinco de Mayo",
    "lat": "-35.4323",
    "lng": "-60.17271"
  },
  {
    "geonameid": "3833367",
    "country": "AR",
    "name": "Ushuaia",
    "lat": "-54.81084",
    "lng": "-68.31591"
  },
  {
    "geonameid": "3833412",
    "country": "AR",
    "name": "Unquillo",
    "lat": "-31.23073",
    "lng": "-64.31615"
  },
  {
    "geonameid": "3833794",
    "country": "AR",
    "name": "Tres Isletas",
    "lat": "-26.34067",
    "lng": "-60.43207"
  },
  {
    "geonameid": "3833859",
    "country": "AR",
    "name": "Tres Arroyos",
    "lat": "-38.37394",
    "lng": "-60.27978"
  },
  {
    "geonameid": "3833883",
    "country": "AR",
    "name": "Trelew",
    "lat": "-43.24895",
    "lng": "-65.30505"
  },
  {
    "geonameid": "3834502",
    "country": "AR",
    "name": "Termas de Río Hondo",
    "lat": "-27.49362",
    "lng": "-64.85972"
  },
  {
    "geonameid": "3834601",
    "country": "AR",
    "name": "Tartagal",
    "lat": "-22.51637",
    "lng": "-63.80131"
  },
  {
    "geonameid": "3834813",
    "country": "AR",
    "name": "Tafí Viejo",
    "lat": "-26.73201",
    "lng": "-65.25921"
  },
  {
    "geonameid": "3834971",
    "country": "AR",
    "name": "Sunchales",
    "lat": "-30.94404",
    "lng": "-61.56148"
  },
  {
    "geonameid": "3835793",
    "country": "AR",
    "name": "Santo Tomé",
    "lat": "-31.66274",
    "lng": "-60.7653"
  },
  {
    "geonameid": "3835869",
    "country": "AR",
    "name": "Santiago del Estero",
    "lat": "-27.79511",
    "lng": "-64.26149"
  },
  {
    "geonameid": "3835994",
    "country": "AR",
    "name": "Santa Rosa",
    "lat": "-36.61667",
    "lng": "-64.28333"
  },
  {
    "geonameid": "3836194",
    "country": "AR",
    "name": "Santa Lucía",
    "lat": "-31.53987",
    "lng": "-68.49503"
  },
  {
    "geonameid": "3836277",
    "country": "AR",
    "name": "Santa Fe",
    "lat": "-31.64881",
    "lng": "-60.70868"
  },
  {
    "geonameid": "3836564",
    "country": "AR",
    "name": "San Salvador de Jujuy",
    "lat": "-24.19457",
    "lng": "-65.29712"
  },
  {
    "geonameid": "3836620",
    "country": "AR",
    "name": "San Ramón de la Nueva Orán",
    "lat": "-23.13705",
    "lng": "-64.32426"
  },
  {
    "geonameid": "3836669",
    "country": "AR",
    "name": "San Rafael",
    "lat": "-34.61772",
    "lng": "-68.33007"
  },
  {
    "geonameid": "3836772",
    "country": "AR",
    "name": "San Pedro de Jujuy",
    "lat": "-24.23127",
    "lng": "-64.86614"
  },
  {
    "geonameid": "3836846",
    "country": "AR",
    "name": "San Nicolás de los Arroyos",
    "lat": "-33.33425",
    "lng": "-60.2108"
  },
  {
    "geonameid": "3836873",
    "country": "AR",
    "name": "San Miguel de Tucumán",
    "lat": "-26.82414",
    "lng": "-65.2226"
  },
  {
    "geonameid": "3836951",
    "country": "AR",
    "name": "San Martín de los Andes",
    "lat": "-40.15789",
    "lng": "-71.35337"
  },
  {
    "geonameid": "3836992",
    "country": "AR",
    "name": "San Martín",
    "lat": "-33.08103",
    "lng": "-68.46814"
  },
  {
    "geonameid": "3837056",
    "country": "AR",
    "name": "San Luis",
    "lat": "-33.29501",
    "lng": "-66.33563"
  },
  {
    "geonameid": "3837124",
    "country": "AR",
    "name": "San Justo",
    "lat": "-30.78913",
    "lng": "-60.59189"
  },
  {
    "geonameid": "3837213",
    "country": "AR",
    "name": "San Juan",
    "lat": "-31.5375",
    "lng": "-68.53639"
  },
  {
    "geonameid": "3837240",
    "country": "AR",
    "name": "San José de Jáchal",
    "lat": "-30.24057",
    "lng": "-68.74693"
  },
  {
    "geonameid": "3837441",
    "country": "AR",
    "name": "San Jorge",
    "lat": "-31.89618",
    "lng": "-61.85984"
  },
  {
    "geonameid": "3837675",
    "country": "AR",
    "name": "San Francisco",
    "lat": "-31.42797",
    "lng": "-62.08266"
  },
  {
    "geonameid": "3837702",
    "country": "AR",
    "name": "Catamarca",
    "lat": "-28.46957",
    "lng": "-65.78524"
  },
  {
    "geonameid": "3837980",
    "country": "AR",
    "name": "San Antonio Oeste",
    "lat": "-40.73193",
    "lng": "-64.94769"
  },
  {
    "geonameid": "3838233",
    "country": "AR",
    "name": "Salta",
    "lat": "-24.7859",
    "lng": "-65.41166"
  },
  {
    "geonameid": "3838506",
    "country": "AR",
    "name": "Rufino",
    "lat": "-34.26827",
    "lng": "-62.71262"
  },
  {
    "geonameid": "3838583",
    "country": "AR",
    "name": "Rosario",
    "lat": "-32.94682",
    "lng": "-60.63932"
  },
  {
    "geonameid": "3838793",
    "country": "AR",
    "name": "Río Tercero",
    "lat": "-32.17301",
    "lng": "-64.11405"
  },
  {
    "geonameid": "3838797",
    "country": "AR",
    "name": "Río Segundo",
    "lat": "-31.6526",
    "lng": "-63.9099"
  },
  {
    "geonameid": "3838854",
    "country": "AR",
    "name": "Río Grande",
    "lat": "-53.78769",
    "lng": "-67.70946"
  },
  {
    "geonameid": "3838859",
    "country": "AR",
    "name": "Río Gallegos",
    "lat": "-51.62261",
    "lng": "-69.21813"
  },
  {
    "geonameid": "3838874",
    "country": "AR",
    "name": "Río Cuarto",
    "lat": "-33.13067",
    "lng": "-64.34992"
  },
  {
    "geonameid": "3838902",
    "country": "AR",
    "name": "Río Ceballos",
    "lat": "-31.16486",
    "lng": "-64.32241"
  },
  {
    "geonameid": "3839307",
    "country": "AR",
    "name": "Rawson",
    "lat": "-43.30016",
    "lng": "-65.10228"
  },
  {
    "geonameid": "3839479",
    "country": "AR",
    "name": "Rafaela",
    "lat": "-31.25033",
    "lng": "-61.4867"
  },
  {
    "geonameid": "3839490",
    "country": "AR",
    "name": "Quitilipi",
    "lat": "-26.86913",
    "lng": "-60.21683"
  },
  {
    "geonameid": "3839982",
    "country": "AR",
    "name": "Punta Alta",
    "lat": "-38.87588",
    "lng": "-62.07359"
  },
  {
    "geonameid": "3840092",
    "country": "AR",
    "name": "Puerto Madryn",
    "lat": "-42.7692",
    "lng": "-65.03851"
  },
  {
    "geonameid": "3840300",
    "country": "AR",
    "name": "Presidencia Roque Sáenz Peña",
    "lat": "-26.78522",
    "lng": "-60.43876"
  },
  {
    "geonameid": "3840860",
    "country": "AR",
    "name": "Pocito",
    "lat": "-31.68333",
    "lng": "-68.58333"
  },
  {
    "geonameid": "3840885",
    "country": "AR",
    "name": "Plottier",
    "lat": "-38.96667",
    "lng": "-68.23333"
  },
  {
    "geonameid": "3841490",
    "country": "AR",
    "name": "Pergamino",
    "lat": "-33.88995",
    "lng": "-60.57357"
  },
  {
    "geonameid": "3841500",
    "country": "AR",
    "name": "Pérez",
    "lat": "-32.99835",
    "lng": "-60.76791"
  },
  {
    "geonameid": "3841956",
    "country": "AR",
    "name": "Paraná",
    "lat": "-31.73271",
    "lng": "-60.52897"
  },
  {
    "geonameid": "3842190",
    "country": "AR",
    "name": "Palpalá",
    "lat": "-24.25647",
    "lng": "-65.21163"
  },
  {
    "geonameid": "3842670",
    "country": "AR",
    "name": "Olavarría",
    "lat": "-36.89272",
    "lng": "-60.32254"
  },
  {
    "geonameid": "3842881",
    "country": "AR",
    "name": "Nueve de Julio",
    "lat": "-35.44437",
    "lng": "-60.88313"
  },
  {
    "geonameid": "3843123",
    "country": "AR",
    "name": "Neuquén",
    "lat": "-38.95161",
    "lng": "-68.0591"
  },
  {
    "geonameid": "3843619",
    "country": "AR",
    "name": "Morteros",
    "lat": "-30.71164",
    "lng": "-61.99862"
  },
  {
    "geonameid": "3843803",
    "country": "AR",
    "name": "Monteros",
    "lat": "-27.16741",
    "lng": "-65.49832"
  },
  {
    "geonameid": "3844421",
    "country": "AR",
    "name": "Mendoza",
    "lat": "-32.89084",
    "lng": "-68.82717"
  },
  {
    "geonameid": "3844899",
    "country": "AR",
    "name": "Marcos Juárez",
    "lat": "-32.6978",
    "lng": "-62.10672"
  },
  {
    "geonameid": "3845330",
    "country": "AR",
    "name": "Machagai",
    "lat": "-26.92614",
    "lng": "-60.04955"
  },
  {
    "geonameid": "3846864",
    "country": "AR",
    "name": "Lincoln",
    "lat": "-34.86649",
    "lng": "-61.5302"
  },
  {
    "geonameid": "3846915",
    "country": "AR",
    "name": "Libertador General San Martín",
    "lat": "-23.80644",
    "lng": "-64.78757"
  },
  {
    "geonameid": "3848687",
    "country": "AR",
    "name": "Las Breñas",
    "lat": "-27.08966",
    "lng": "-61.08161"
  },
  {
    "geonameid": "3848950",
    "country": "AR",
    "name": "La Rioja",
    "lat": "-29.41105",
    "lng": "-66.85067"
  },
  {
    "geonameid": "3851331",
    "country": "AR",
    "name": "La Falda",
    "lat": "-31.08841",
    "lng": "-64.48987"
  },
  {
    "geonameid": "3852374",
    "country": "AR",
    "name": "La Calera",
    "lat": "-31.34377",
    "lng": "-64.33529"
  },
  {
    "geonameid": "3852468",
    "country": "AR",
    "name": "Laboulaye",
    "lat": "-34.12662",
    "lng": "-63.39119"
  },
  {
    "geonameid": "3853354",
    "country": "AR",
    "name": "Junín",
    "lat": "-34.58382",
    "lng": "-60.94332"
  },
  {
    "geonameid": "3853491",
    "country": "AR",
    "name": "Joaquín V. González",
    "lat": "-25.11364",
    "lng": "-64.12628"
  },
  {
    "geonameid": "3853510",
    "country": "AR",
    "name": "Jesús María",
    "lat": "-30.98153",
    "lng": "-64.09424"
  },
  {
    "geonameid": "3854895",
    "country": "AR",
    "name": "Granadero Baigorria",
    "lat": "-32.85683",
    "lng": "-60.71754"
  },
  {
    "geonameid": "3854985",
    "country": "AR",
    "name": "Gobernador Gálvez",
    "lat": "-33.03016",
    "lng": "-60.64045"
  },
  {
    "geonameid": "3855041",
    "country": "AR",
    "name": "General Villegas",
    "lat": "-35.03285",
    "lng": "-63.01252"
  },
  {
    "geonameid": "3855065",
    "country": "AR",
    "name": "General Roca",
    "lat": "-39.03333",
    "lng": "-67.58333"
  },
  {
    "geonameid": "3855074",
    "country": "AR",
    "name": "General Pinedo",
    "lat": "-27.31667",
    "lng": "-61.28333"
  },
  {
    "geonameid": "3855075",
    "country": "AR",
    "name": "General Pico",
    "lat": "-35.65662",
    "lng": "-63.75682"
  },
  {
    "geonameid": "3855116",
    "country": "AR",
    "name": "General Mosconi",
    "lat": "-22.59588",
    "lng": "-63.81255"
  },
  {
    "geonameid": "3855244",
    "country": "AR",
    "name": "Gálvez",
    "lat": "-32.02927",
    "lng": "-61.22103"
  },
  {
    "geonameid": "3855554",
    "country": "AR",
    "name": "Firmat",
    "lat": "-33.45937",
    "lng": "-61.4832"
  },
  {
    "geonameid": "3855666",
    "country": "AR",
    "name": "Famaillá",
    "lat": "-27.05413",
    "lng": "-65.40329"
  },
  {
    "geonameid": "3855974",
    "country": "AR",
    "name": "Esquel",
    "lat": "-42.91147",
    "lng": "-71.31947"
  },
  {
    "geonameid": "3856022",
    "country": "AR",
    "name": "Esperanza",
    "lat": "-31.4488",
    "lng": "-60.93173"
  },
  {
    "geonameid": "3856231",
    "country": "AR",
    "name": "Embarcación",
    "lat": "-23.21003",
    "lng": "-64.09965"
  },
  {
    "geonameid": "3856235",
    "country": "AR",
    "name": "Embalse",
    "lat": "-32.18",
    "lng": "-64.41809"
  },
  {
    "geonameid": "3858765",
    "country": "AR",
    "name": "El Bolsón",
    "lat": "-41.96051",
    "lng": "-71.53336"
  },
  {
    "geonameid": "3859384",
    "country": "AR",
    "name": "Diamante",
    "lat": "-32.06641",
    "lng": "-60.63837"
  },
  {
    "geonameid": "3859512",
    "country": "AR",
    "name": "Deán Funes",
    "lat": "-30.42036",
    "lng": "-64.34984"
  },
  {
    "geonameid": "3859552",
    "country": "AR",
    "name": "Cutral-Có",
    "lat": "-38.93424",
    "lng": "-69.23052"
  },
  {
    "geonameid": "3859828",
    "country": "AR",
    "name": "Cruz del Eje",
    "lat": "-30.72644",
    "lng": "-64.80387"
  },
  {
    "geonameid": "3859904",
    "country": "AR",
    "name": "Crespo",
    "lat": "-32.02873",
    "lng": "-60.30658"
  },
  {
    "geonameid": "3859965",
    "country": "AR",
    "name": "Cosquín",
    "lat": "-31.24508",
    "lng": "-64.46563"
  },
  {
    "geonameid": "3860164",
    "country": "AR",
    "name": "Coronel Suárez",
    "lat": "-37.45467",
    "lng": "-61.93343"
  },
  {
    "geonameid": "3860217",
    "country": "AR",
    "name": "Coronda",
    "lat": "-31.97263",
    "lng": "-60.91983"
  },
  {
    "geonameid": "3860259",
    "country": "AR",
    "name": "Córdoba",
    "lat": "-31.4135",
    "lng": "-64.18105"
  },
  {
    "geonameid": "3860443",
    "country": "AR",
    "name": "Comodoro Rivadavia",
    "lat": "-45.86413",
    "lng": "-67.49656"
  },
  {
    "geonameid": "3861056",
    "country": "AR",
    "name": "Cipolletti",
    "lat": "-38.93392",
    "lng": "-67.99032"
  },
  {
    "geonameid": "3861061",
    "country": "AR",
    "name": "Cinco Saltos",
    "lat": "-38.82225",
    "lng": "-68.06293"
  },
  {
    "geonameid": "3861344",
    "country": "AR",
    "name": "Chivilcoy",
    "lat": "-34.89566",
    "lng": "-60.01667"
  },
  {
    "geonameid": "3861416",
    "country": "AR",
    "name": "Chimbas",
    "lat": "-31.48333",
    "lng": "-68.53333"
  },
  {
    "geonameid": "3861445",
    "country": "AR",
    "name": "Chilecito",
    "lat": "-29.16195",
    "lng": "-67.4974"
  },
  {
    "geonameid": "3861678",
    "country": "AR",
    "name": "Charata",
    "lat": "-27.21438",
    "lng": "-61.18795"
  },
  {
    "geonameid": "3861953",
    "country": "AR",
    "name": "Chacabuco",
    "lat": "-34.64167",
    "lng": "-60.47389"
  },
  {
    "geonameid": "3862144",
    "country": "AR",
    "name": "Centenario",
    "lat": "-38.82955",
    "lng": "-68.1318"
  },
  {
    "geonameid": "3862240",
    "country": "AR",
    "name": "Caucete",
    "lat": "-31.65179",
    "lng": "-68.28105"
  },
  {
    "geonameid": "3862254",
    "country": "AR",
    "name": "Catriel",
    "lat": "-37.87907",
    "lng": "-67.7956"
  },
  {
    "geonameid": "3862320",
    "country": "AR",
    "name": "Castelli",
    "lat": "-25.94679",
    "lng": "-60.61947"
  },
  {
    "geonameid": "3862351",
    "country": "AR",
    "name": "Casilda",
    "lat": "-33.04417",
    "lng": "-61.16806"
  },
  {
    "geonameid": "3862655",
    "country": "AR",
    "name": "Carcarañá",
    "lat": "-32.85679",
    "lng": "-61.15331"
  },
  {
    "geonameid": "3862738",
    "country": "AR",
    "name": "Capitán Bermúdez",
    "lat": "-32.82262",
    "lng": "-60.71852"
  },
  {
    "geonameid": "3862981",
    "country": "AR",
    "name": "Cañada de Gómez",
    "lat": "-32.81636",
    "lng": "-61.39493"
  },
  {
    "geonameid": "3863379",
    "country": "AR",
    "name": "Caleta Olivia",
    "lat": "-46.43929",
    "lng": "-67.52814"
  },
  {
    "geonameid": "3864331",
    "country": "AR",
    "name": "Bell Ville",
    "lat": "-32.62591",
    "lng": "-62.68873"
  },
  {
    "geonameid": "3864375",
    "country": "AR",
    "name": "Bella Vista",
    "lat": "-27.03424",
    "lng": "-65.30196"
  },
  {
    "geonameid": "3865086",
    "country": "AR",
    "name": "Bahía Blanca",
    "lat": "-38.71959",
    "lng": "-62.27243"
  },
  {
    "geonameid": "3865385",
    "country": "AR",
    "name": "Arroyo Seco",
    "lat": "-33.15489",
    "lng": "-60.50863"
  },
  {
    "geonameid": "3865424",
    "country": "AR",
    "name": "Arroyito",
    "lat": "-31.42022",
    "lng": "-63.05002"
  },
  {
    "geonameid": "3865840",
    "country": "AR",
    "name": "Añatuya",
    "lat": "-28.46064",
    "lng": "-62.83472"
  },
  {
    "geonameid": "3866163",
    "country": "AR",
    "name": "Alta Gracia",
    "lat": "-31.65292",
    "lng": "-64.42826"
  },
  {
    "geonameid": "3866242",
    "country": "AR",
    "name": "Allen",
    "lat": "-38.97736",
    "lng": "-67.82714"
  },
  {
    "geonameid": "3866367",
    "country": "AR",
    "name": "Alderetes",
    "lat": "-26.81667",
    "lng": "-65.13333"
  },
  {
    "geonameid": "3866425",
    "country": "AR",
    "name": "Albardón",
    "lat": "-31.43722",
    "lng": "-68.52556"
  },
  {
    "geonameid": "3866496",
    "country": "AR",
    "name": "Aguilares",
    "lat": "-27.4338",
    "lng": "-65.61427"
  },
  {
    "geonameid": "6693228",
    "country": "AR",
    "name": "Balvanera",
    "lat": "-34.61032",
    "lng": "-58.39766"
  },
  {
    "geonameid": "6693230",
    "country": "AR",
    "name": "Villa Santa Rita",
    "lat": "-34.61082",
    "lng": "-58.481"
  },
  {
    "geonameid": "7116866",
    "country": "AR",
    "name": "Villa Mercedes",
    "lat": "-33.67571",
    "lng": "-65.45783"
  },
  {
    "geonameid": "7645166",
    "country": "AR",
    "name": "San Miguel",
    "lat": "-34.54335",
    "lng": "-58.71229"
  },
  {
    "geonameid": "7647007",
    "country": "AR",
    "name": "San Carlos de Bariloche",
    "lat": "-41.14557",
    "lng": "-71.30822"
  },
  {
    "geonameid": "10172104",
    "country": "AR",
    "name": "Adrogué",
    "lat": "-34.80041",
    "lng": "-58.38384"
  },
  {
    "geonameid": "11147723",
    "country": "AR",
    "name": "Ingeniero Pablo Nogués",
    "lat": "-34.47775",
    "lng": "-58.70652"
  },
  {
    "geonameid": "12076997",
    "country": "AR",
    "name": "José C. Paz",
    "lat": "-34.51541",
    "lng": "-58.76813"
  },
  {
    "geonameid": "5881576",
    "country": "AS",
    "name": "Pago Pago",
    "lat": "-14.27806",
    "lng": "-170.7025"
  },
  {
    "geonameid": "2761164",
    "country": "AT",
    "name": "Wilten",
    "lat": "47.25829",
    "lng": "11.38808"
  },
  {
    "geonameid": "2761353",
    "country": "AT",
    "name": "Wiener Neustadt",
    "lat": "47.80485",
    "lng": "16.23196"
  },
  {
    "geonameid": "2761369",
    "country": "AT",
    "name": "Vienna",
    "lat": "48.20849",
    "lng": "16.37208"
  },
  {
    "geonameid": "2761436",
    "country": "AT",
    "name": "Wetzelsdorf",
    "lat": "47.05293",
    "lng": "15.39923"
  },
  {
    "geonameid": "2761524",
    "country": "AT",
    "name": "Wels",
    "lat": "48.16667",
    "lng": "14.03333"
  },
  {
    "geonameid": "2761669",
    "country": "AT",
    "name": "Weinzierl bei Krems",
    "lat": "48.4",
    "lng": "15.6"
  },
  {
    "geonameid": "2762372",
    "country": "AT",
    "name": "Villach",
    "lat": "46.61028",
    "lng": "13.85583"
  },
  {
    "geonameid": "2763810",
    "country": "AT",
    "name": "Telfs",
    "lat": "47.30707",
    "lng": "11.06817"
  },
  {
    "geonameid": "2764178",
    "country": "AT",
    "name": "Straßgang",
    "lat": "47.03333",
    "lng": "15.4"
  },
  {
    "geonameid": "2764279",
    "country": "AT",
    "name": "Stockerau",
    "lat": "48.38333",
    "lng": "16.21667"
  },
  {
    "geonameid": "2764359",
    "country": "AT",
    "name": "Steyr",
    "lat": "48.04274",
    "lng": "14.42127"
  },
  {
    "geonameid": "2765028",
    "country": "AT",
    "name": "Simmering",
    "lat": "48.18333",
    "lng": "16.43333"
  },
  {
    "geonameid": "2766429",
    "country": "AT",
    "name": "Sankt Pölten",
    "lat": "48.2",
    "lng": "15.63333"
  },
  {
    "geonameid": "2766446",
    "country": "AT",
    "name": "Sankt Peter",
    "lat": "47.05",
    "lng": "15.46667"
  },
  {
    "geonameid": "2766447",
    "country": "AT",
    "name": "Sankt Peter",
    "lat": "46.62978",
    "lng": "14.34016"
  },
  {
    "geonameid": "2766522",
    "country": "AT",
    "name": "Sankt Martin",
    "lat": "46.61667",
    "lng": "14.28333"
  },
  {
    "geonameid": "2766824",
    "country": "AT",
    "name": "Salzburg",
    "lat": "47.79941",
    "lng": "13.04399"
  },
  {
    "geonameid": "2766922",
    "country": "AT",
    "name": "Saalfelden am Steinernen Meer",
    "lat": "47.42681",
    "lng": "12.848"
  },
  {
    "geonameid": "2768442",
    "country": "AT",
    "name": "Pradl",
    "lat": "47.26539",
    "lng": "11.4152"
  },
  {
    "geonameid": "2769110",
    "country": "AT",
    "name": "Perchtoldsdorf",
    "lat": "48.11935",
    "lng": "16.26607"
  },
  {
    "geonameid": "2769359",
    "country": "AT",
    "name": "Ottakring",
    "lat": "48.21667",
    "lng": "16.3"
  },
  {
    "geonameid": "2771335",
    "country": "AT",
    "name": "Mödling",
    "lat": "48.08605",
    "lng": "16.28921"
  },
  {
    "geonameid": "2771706",
    "country": "AT",
    "name": "Meidling",
    "lat": "48.16667",
    "lng": "16.33333"
  },
  {
    "geonameid": "2772173",
    "country": "AT",
    "name": "Lustenau",
    "lat": "47.42642",
    "lng": "9.65851"
  },
  {
    "geonameid": "2772400",
    "country": "AT",
    "name": "Linz",
    "lat": "48.30639",
    "lng": "14.28611"
  },
  {
    "geonameid": "2773913",
    "country": "AT",
    "name": "Klosterneuburg",
    "lat": "48.30521",
    "lng": "16.32522"
  },
  {
    "geonameid": "2774326",
    "country": "AT",
    "name": "Klagenfurt am Wörthersee",
    "lat": "46.62472",
    "lng": "14.30528"
  },
  {
    "geonameid": "2775220",
    "country": "AT",
    "name": "Innsbruck",
    "lat": "47.26266",
    "lng": "11.39454"
  },
  {
    "geonameid": "2775260",
    "country": "AT",
    "name": "Innere Stadt",
    "lat": "48.20906",
    "lng": "16.37135"
  },
  {
    "geonameid": "2775479",
    "country": "AT",
    "name": "Hötting",
    "lat": "47.26815",
    "lng": "11.36868"
  },
  {
    "geonameid": "2775742",
    "country": "AT",
    "name": "Hohenems",
    "lat": "47.36121",
    "lng": "9.68694"
  },
  {
    "geonameid": "2776421",
    "country": "AT",
    "name": "Hietzing",
    "lat": "48.18623",
    "lng": "16.2965"
  },
  {
    "geonameid": "2776488",
    "country": "AT",
    "name": "Hernals",
    "lat": "48.23333",
    "lng": "16.26667"
  },
  {
    "geonameid": "2778067",
    "country": "AT",
    "name": "Graz",
    "lat": "47.06667",
    "lng": "15.45"
  },
  {
    "geonameid": "2779469",
    "country": "AT",
    "name": "Floridsdorf",
    "lat": "48.25",
    "lng": "16.4"
  },
  {
    "geonameid": "2779674",
    "country": "AT",
    "name": "Feldkirch",
    "lat": "47.23306",
    "lng": "9.6"
  },
  {
    "geonameid": "2780361",
    "country": "AT",
    "name": "Eggenberg",
    "lat": "47.07",
    "lng": "15.39871"
  },
  {
    "geonameid": "2780741",
    "country": "AT",
    "name": "Dornbirn",
    "lat": "47.41427",
    "lng": "9.74195"
  },
  {
    "geonameid": "2781503",
    "country": "AT",
    "name": "Bregenz",
    "lat": "47.50311",
    "lng": "9.7471"
  },
  {
    "geonameid": "2782067",
    "country": "AT",
    "name": "Baden",
    "lat": "48.00543",
    "lng": "16.23264"
  },
  {
    "geonameid": "2782555",
    "country": "AT",
    "name": "Amstetten",
    "lat": "48.1229",
    "lng": "14.87206"
  },
  {
    "geonameid": "8063098",
    "country": "AT",
    "name": "Favoriten",
    "lat": "48.16116",
    "lng": "16.38233"
  },
  {
    "geonameid": "11903636",
    "country": "AT",
    "name": "Donaustadt",
    "lat": "48.2333",
    "lng": "16.46002"
  },
  {
    "geonameid": "11903637",
    "country": "AT",
    "name": "Jakomini",
    "lat": "47.05441",
    "lng": "15.44984"
  },
  {
    "geonameid": "11903638",
    "country": "AT",
    "name": "Lend",
    "lat": "47.08256",
    "lng": "15.41589"
  },
  {
    "geonameid": "11903639",
    "country": "AT",
    "name": "Geidorf",
    "lat": "47.08393",
    "lng": "15.444"
  },
  {
    "geonameid": "11903640",
    "country": "AT",
    "name": "Sankt Leonhard",
    "lat": "47.06924",
    "lng": "15.45784"
  },
  {
    "geonameid": "11903641",
    "country": "AT",
    "name": "Andritz",
    "lat": "47.11387",
    "lng": "15.42348"
  },
  {
    "geonameid": "11903642",
    "country": "AT",
    "name": "Gries",
    "lat": "47.06236",
    "lng": "15.42421"
  },
  {
    "geonameid": "2061840",
    "country": "AU",
    "name": "Scarborough",
    "lat": "-31.89578",
    "lng": "115.76431"
  },
  {
    "geonameid": "2062338",
    "country": "AU",
    "name": "Rockingham",
    "lat": "-32.27682",
    "lng": "115.72978"
  },
  {
    "geonameid": "2063523",
    "country": "AU",
    "name": "Perth",
    "lat": "-31.95224",
    "lng": "115.8614"
  },
  {
    "geonameid": "2065594",
    "country": "AU",
    "name": "Mount Isa",
    "lat": "-20.72523",
    "lng": "139.49727"
  },
  {
    "geonameid": "2065740",
    "country": "AU",
    "name": "Morphett Vale",
    "lat": "-35.13333",
    "lng": "138.51667"
  },
  {
    "geonameid": "2067119",
    "country": "AU",
    "name": "Mandurah",
    "lat": "-32.5269",
    "lng": "115.7217"
  },
  {
    "geonameid": "2068079",
    "country": "AU",
    "name": "Kwinana",
    "lat": "-32.23013",
    "lng": "115.78128"
  },
  {
    "geonameid": "2070571",
    "country": "AU",
    "name": "Gosnells",
    "lat": "-32.081",
    "lng": "116.0054"
  },
  {
    "geonameid": "2070998",
    "country": "AU",
    "name": "Geraldton",
    "lat": "-28.77897",
    "lng": "114.61459"
  },
  {
    "geonameid": "2071059",
    "country": "AU",
    "name": "Gawler",
    "lat": "-34.60251",
    "lng": "138.74902"
  },
  {
    "geonameid": "2073124",
    "country": "AU",
    "name": "Darwin",
    "lat": "-12.46113",
    "lng": "130.84185"
  },
  {
    "geonameid": "2075230",
    "country": "AU",
    "name": "Byford",
    "lat": "-32.22099",
    "lng": "116.009"
  },
  {
    "geonameid": "2075265",
    "country": "AU",
    "name": "Busselton",
    "lat": "-33.65249",
    "lng": "115.3455"
  },
  {
    "geonameid": "2075432",
    "country": "AU",
    "name": "Bunbury",
    "lat": "-33.32711",
    "lng": "115.64137"
  },
  {
    "geonameid": "2077454",
    "country": "AU",
    "name": "Australind",
    "lat": "-33.2792",
    "lng": "115.71504"
  },
  {
    "geonameid": "2077895",
    "country": "AU",
    "name": "Alice Springs",
    "lat": "-23.69748",
    "lng": "133.88362"
  },
  {
    "geonameid": "2077963",
    "country": "AU",
    "name": "Albany",
    "lat": "-35.02692",
    "lng": "117.88369"
  },
  {
    "geonameid": "2078025",
    "country": "AU",
    "name": "Adelaide",
    "lat": "-34.92866",
    "lng": "138.59863"
  },
  {
    "geonameid": "2142457",
    "country": "AU",
    "name": "Yarraville",
    "lat": "-37.81667",
    "lng": "144.9"
  },
  {
    "geonameid": "2143255",
    "country": "AU",
    "name": "Wollert",
    "lat": "-37.58333",
    "lng": "145.03333"
  },
  {
    "geonameid": "2143285",
    "country": "AU",
    "name": "Wodonga",
    "lat": "-36.12179",
    "lng": "146.88809"
  },
  {
    "geonameid": "2143887",
    "country": "AU",
    "name": "Wheelers Hill",
    "lat": "-37.9",
    "lng": "145.18333"
  },
  {
    "geonameid": "2143973",
    "country": "AU",
    "name": "Westmead",
    "lat": "-33.80383",
    "lng": "150.98768"
  },
  {
    "geonameid": "2144095",
    "country": "AU",
    "name": "Werribee",
    "lat": "-37.9",
    "lng": "144.66667"
  },
  {
    "geonameid": "2144502",
    "country": "AU",
    "name": "Warwick",
    "lat": "-28.21901",
    "lng": "152.03438"
  },
  {
    "geonameid": "2144528",
    "country": "AU",
    "name": "Warrnambool",
    "lat": "-38.38176",
    "lng": "142.48799"
  },
  {
    "geonameid": "2144604",
    "country": "AU",
    "name": "Warragul",
    "lat": "-38.15912",
    "lng": "145.93118"
  },
  {
    "geonameid": "2144728",
    "country": "AU",
    "name": "Wantirna South",
    "lat": "-37.88333",
    "lng": "145.21667"
  },
  {
    "geonameid": "2144764",
    "country": "AU",
    "name": "Wangaratta",
    "lat": "-36.35846",
    "lng": "146.32056"
  },
  {
    "geonameid": "2145092",
    "country": "AU",
    "name": "Wahroonga",
    "lat": "-33.71816",
    "lng": "151.11561"
  },
  {
    "geonameid": "2145461",
    "country": "AU",
    "name": "Upper Coomera",
    "lat": "-27.87683",
    "lng": "153.28572"
  },
  {
    "geonameid": "2145990",
    "country": "AU",
    "name": "Truganina",
    "lat": "-37.81667",
    "lng": "144.75"
  },
  {
    "geonameid": "2146108",
    "country": "AU",
    "name": "Traralgon",
    "lat": "-38.19528",
    "lng": "146.5415"
  },
  {
    "geonameid": "2146142",
    "country": "AU",
    "name": "Townsville",
    "lat": "-19.26639",
    "lng": "146.80569"
  },
  {
    "geonameid": "2146268",
    "country": "AU",
    "name": "Toowoomba",
    "lat": "-27.56056",
    "lng": "151.95386"
  },
  {
    "geonameid": "2146793",
    "country": "AU",
    "name": "Thornbury",
    "lat": "-37.75819",
    "lng": "145.00583"
  },
  {
    "geonameid": "2146827",
    "country": "AU",
    "name": "Thomastown",
    "lat": "-37.68333",
    "lng": "145.01667"
  },
  {
    "geonameid": "2147140",
    "country": "AU",
    "name": "Templestowe",
    "lat": "-37.75405",
    "lng": "145.14864"
  },
  {
    "geonameid": "2147357",
    "country": "AU",
    "name": "Tarneit",
    "lat": "-37.83634",
    "lng": "144.65952"
  },
  {
    "geonameid": "2147381",
    "country": "AU",
    "name": "Taree",
    "lat": "-31.91099",
    "lng": "152.45387"
  },
  {
    "geonameid": "2147497",
    "country": "AU",
    "name": "Tamworth",
    "lat": "-31.09048",
    "lng": "150.92905"
  },
  {
    "geonameid": "2147714",
    "country": "AU",
    "name": "Sydney",
    "lat": "-33.86785",
    "lng": "151.20732"
  },
  {
    "geonameid": "2147821",
    "country": "AU",
    "name": "Surry Hills",
    "lat": "-33.88374",
    "lng": "151.21282"
  },
  {
    "geonameid": "2147849",
    "country": "AU",
    "name": "Surfers Paradise",
    "lat": "-28.00274",
    "lng": "153.42999"
  },
  {
    "geonameid": "2147914",
    "country": "AU",
    "name": "Sunbury",
    "lat": "-37.57742",
    "lng": "144.72607"
  },
  {
    "geonameid": "2148088",
    "country": "AU",
    "name": "Strathfield",
    "lat": "-33.88096",
    "lng": "151.07986"
  },
  {
    "geonameid": "2148591",
    "country": "AU",
    "name": "Springvale",
    "lat": "-37.94853",
    "lng": "145.15274"
  },
  {
    "geonameid": "2148876",
    "country": "AU",
    "name": "South Yarra",
    "lat": "-37.83834",
    "lng": "144.99149"
  },
  {
    "geonameid": "2148928",
    "country": "AU",
    "name": "Southport",
    "lat": "-27.96724",
    "lng": "153.39796"
  },
  {
    "geonameid": "2149645",
    "country": "AU",
    "name": "Shepparton",
    "lat": "-36.38047",
    "lng": "145.39867"
  },
  {
    "geonameid": "2149847",
    "country": "AU",
    "name": "Seven Hills",
    "lat": "-33.78333",
    "lng": "150.93333"
  },
  {
    "geonameid": "2149975",
    "country": "AU",
    "name": "Seaford",
    "lat": "-38.1",
    "lng": "145.13333"
  },
  {
    "geonameid": "2150660",
    "country": "AU",
    "name": "Saint Kilda",
    "lat": "-37.8676",
    "lng": "144.98099"
  },
  {
    "geonameid": "2150669",
    "country": "AU",
    "name": "Saint Ives",
    "lat": "-33.72976",
    "lng": "151.15977"
  },
  {
    "geonameid": "2150717",
    "country": "AU",
    "name": "Saint Albans",
    "lat": "-37.73333",
    "lng": "144.8"
  },
  {
    "geonameid": "2150767",
    "country": "AU",
    "name": "Ryde",
    "lat": "-33.8188",
    "lng": "151.1062"
  },
  {
    "geonameid": "2150894",
    "country": "AU",
    "name": "Rowville",
    "lat": "-37.93333",
    "lng": "145.23333"
  },
  {
    "geonameid": "2151437",
    "country": "AU",
    "name": "Rockhampton",
    "lat": "-23.38032",
    "lng": "150.50595"
  },
  {
    "geonameid": "2151443",
    "country": "AU",
    "name": "Rockdale",
    "lat": "-33.95",
    "lng": "151.13333"
  },
  {
    "geonameid": "2151576",
    "country": "AU",
    "name": "Ringwood",
    "lat": "-37.81667",
    "lng": "145.23333"
  },
  {
    "geonameid": "2151649",
    "country": "AU",
    "name": "Richmond",
    "lat": "-37.81819",
    "lng": "145.00176"
  },
  {
    "geonameid": "2151716",
    "country": "AU",
    "name": "Reservoir",
    "lat": "-37.71667",
    "lng": "145"
  },
  {
    "geonameid": "2152329",
    "country": "AU",
    "name": "Quakers Hill",
    "lat": "-33.73333",
    "lng": "150.88333"
  },
  {
    "geonameid": "2152558",
    "country": "AU",
    "name": "Preston",
    "lat": "-37.75",
    "lng": "145.01667"
  },
  {
    "geonameid": "2152658",
    "country": "AU",
    "name": "Port Melbourne",
    "lat": "-37.83961",
    "lng": "144.94228"
  },
  {
    "geonameid": "2152659",
    "country": "AU",
    "name": "Port Macquarie",
    "lat": "-31.43084",
    "lng": "152.90894"
  },
  {
    "geonameid": "2152819",
    "country": "AU",
    "name": "Point Cook",
    "lat": "-37.91482",
    "lng": "144.75088"
  },
  {
    "geonameid": "2153720",
    "country": "AU",
    "name": "Pascoe Vale",
    "lat": "-37.73333",
    "lng": "144.93333"
  },
  {
    "geonameid": "2153925",
    "country": "AU",
    "name": "Palm Beach",
    "lat": "-28.11694",
    "lng": "153.46584"
  },
  {
    "geonameid": "2153953",
    "country": "AU",
    "name": "Pakenham",
    "lat": "-38.07018",
    "lng": "145.47411"
  },
  {
    "geonameid": "2154219",
    "country": "AU",
    "name": "Orange",
    "lat": "-33.28397",
    "lng": "149.10018"
  },
  {
    "geonameid": "2154481",
    "country": "AU",
    "name": "Officer",
    "lat": "-38.05916",
    "lng": "145.40947"
  },
  {
    "geonameid": "2154912",
    "country": "AU",
    "name": "North Melbourne",
    "lat": "-37.79798",
    "lng": "144.94512"
  },
  {
    "geonameid": "2155001",
    "country": "AU",
    "name": "Northcote",
    "lat": "-37.76667",
    "lng": "145"
  },
  {
    "geonameid": "2155204",
    "country": "AU",
    "name": "Noble Park",
    "lat": "-37.96667",
    "lng": "145.16667"
  },
  {
    "geonameid": "2155472",
    "country": "AU",
    "name": "Newcastle",
    "lat": "-32.92953",
    "lng": "151.7801"
  },
  {
    "geonameid": "2155542",
    "country": "AU",
    "name": "Nerang",
    "lat": "-27.98941",
    "lng": "153.33633"
  },
  {
    "geonameid": "2155718",
    "country": "AU",
    "name": "Narre Warren",
    "lat": "-38.03333",
    "lng": "145.3"
  },
  {
    "geonameid": "2155787",
    "country": "AU",
    "name": "Narangba",
    "lat": "-27.20338",
    "lng": "152.95923"
  },
  {
    "geonameid": "2156340",
    "country": "AU",
    "name": "Mulgrave",
    "lat": "-37.92845",
    "lng": "145.17708"
  },
  {
    "geonameid": "2156492",
    "country": "AU",
    "name": "Mount Waverley",
    "lat": "-37.87709",
    "lng": "145.12939"
  },
  {
    "geonameid": "2156578",
    "country": "AU",
    "name": "Mount Martha",
    "lat": "-38.26667",
    "lng": "145.01667"
  },
  {
    "geonameid": "2156643",
    "country": "AU",
    "name": "Mount Gambier",
    "lat": "-37.8318",
    "lng": "140.77919"
  },
  {
    "geonameid": "2156663",
    "country": "AU",
    "name": "Mount Eliza",
    "lat": "-38.18333",
    "lng": "145.08333"
  },
  {
    "geonameid": "2156671",
    "country": "AU",
    "name": "Mount Druitt",
    "lat": "-33.76667",
    "lng": "150.81667"
  },
  {
    "geonameid": "2156813",
    "country": "AU",
    "name": "Mosman",
    "lat": "-33.83902",
    "lng": "151.23956"
  },
  {
    "geonameid": "2156878",
    "country": "AU",
    "name": "Mornington",
    "lat": "-38.21792",
    "lng": "145.03876"
  },
  {
    "geonameid": "2156934",
    "country": "AU",
    "name": "Morayfield",
    "lat": "-27.10876",
    "lng": "152.94907"
  },
  {
    "geonameid": "2156942",
    "country": "AU",
    "name": "South Morang",
    "lat": "-37.65",
    "lng": "145.1"
  },
  {
    "geonameid": "2156977",
    "country": "AU",
    "name": "Mooroolbark",
    "lat": "-37.78247",
    "lng": "145.31682"
  },
  {
    "geonameid": "2157056",
    "country": "AU",
    "name": "Moonee Ponds",
    "lat": "-37.76667",
    "lng": "144.91667"
  },
  {
    "geonameid": "2157410",
    "country": "AU",
    "name": "Mitcham",
    "lat": "-37.81667",
    "lng": "145.2"
  },
  {
    "geonameid": "2157495",
    "country": "AU",
    "name": "Miranda",
    "lat": "-34.03857",
    "lng": "151.10005"
  },
  {
    "geonameid": "2157635",
    "country": "AU",
    "name": "Mill Park",
    "lat": "-37.66667",
    "lng": "145.06667"
  },
  {
    "geonameid": "2157698",
    "country": "AU",
    "name": "Mildura",
    "lat": "-34.18551",
    "lng": "142.16251"
  },
  {
    "geonameid": "2157995",
    "country": "AU",
    "name": "Merrylands",
    "lat": "-33.83333",
    "lng": "150.98333"
  },
  {
    "geonameid": "2158051",
    "country": "AU",
    "name": "Mernda",
    "lat": "-37.60075",
    "lng": "145.09555"
  },
  {
    "geonameid": "2158177",
    "country": "AU",
    "name": "Melbourne",
    "lat": "-37.814",
    "lng": "144.96332"
  },
  {
    "geonameid": "2158538",
    "country": "AU",
    "name": "Mascot",
    "lat": "-33.92598",
    "lng": "151.19347"
  },
  {
    "geonameid": "2158562",
    "country": "AU",
    "name": "Maryborough",
    "lat": "-25.54073",
    "lng": "152.70493"
  },
  {
    "geonameid": "2158626",
    "country": "AU",
    "name": "Marrickville",
    "lat": "-33.90741",
    "lng": "151.15546"
  },
  {
    "geonameid": "2158651",
    "country": "AU",
    "name": "Maroubra",
    "lat": "-33.95",
    "lng": "151.23333"
  },
  {
    "geonameid": "2158867",
    "country": "AU",
    "name": "Manly",
    "lat": "-33.79798",
    "lng": "151.28826"
  },
  {
    "geonameid": "2159045",
    "country": "AU",
    "name": "Maitland",
    "lat": "-32.73308",
    "lng": "151.5574"
  },
  {
    "geonameid": "2159220",
    "country": "AU",
    "name": "Mackay",
    "lat": "-21.15345",
    "lng": "149.16554"
  },
  {
    "geonameid": "2159851",
    "country": "AU",
    "name": "Liverpool",
    "lat": "-33.91938",
    "lng": "150.92588"
  },
  {
    "geonameid": "2160188",
    "country": "AU",
    "name": "Lilydale",
    "lat": "-37.75",
    "lng": "145.35"
  },
  {
    "geonameid": "2160258",
    "country": "AU",
    "name": "Lidcombe",
    "lat": "-33.86436",
    "lng": "151.0397"
  },
  {
    "geonameid": "2160517",
    "country": "AU",
    "name": "Launceston",
    "lat": "-41.43876",
    "lng": "147.13467"
  },
  {
    "geonameid": "2160560",
    "country": "AU",
    "name": "Lara",
    "lat": "-38.02388",
    "lng": "144.40617"
  },
  {
    "geonameid": "2160582",
    "country": "AU",
    "name": "Langwarrin",
    "lat": "-38.16667",
    "lng": "145.16667"
  },
  {
    "geonameid": "2160706",
    "country": "AU",
    "name": "Lalor",
    "lat": "-37.66667",
    "lng": "145.01667"
  },
  {
    "geonameid": "2160744",
    "country": "AU",
    "name": "Lakemba",
    "lat": "-33.91972",
    "lng": "151.07592"
  },
  {
    "geonameid": "2161185",
    "country": "AU",
    "name": "Kogarah",
    "lat": "-33.9681",
    "lng": "151.13564"
  },
  {
    "geonameid": "2161532",
    "country": "AU",
    "name": "Keysborough",
    "lat": "-37.99116",
    "lng": "145.17385"
  },
  {
    "geonameid": "2161540",
    "country": "AU",
    "name": "Kew",
    "lat": "-37.80639",
    "lng": "145.03086"
  },
  {
    "geonameid": "2161608",
    "country": "AU",
    "name": "Kensington",
    "lat": "-33.92019",
    "lng": "151.22241"
  },
  {
    "geonameid": "2163137",
    "country": "AU",
    "name": "Hornsby",
    "lat": "-33.70244",
    "lng": "151.09931"
  },
  {
    "geonameid": "2163355",
    "country": "AU",
    "name": "Hobart",
    "lat": "-42.87936",
    "lng": "147.32941"
  },
  {
    "geonameid": "2163776",
    "country": "AU",
    "name": "Hawthorn South",
    "lat": "-37.8329",
    "lng": "145.0367"
  },
  {
    "geonameid": "2163782",
    "country": "AU",
    "name": "Hawthorn",
    "lat": "-37.81992",
    "lng": "145.0358"
  },
  {
    "geonameid": "2163990",
    "country": "AU",
    "name": "Hampton Park",
    "lat": "-38.03333",
    "lng": "145.25"
  },
  {
    "geonameid": "2164422",
    "country": "AU",
    "name": "Griffith",
    "lat": "-34.28853",
    "lng": "146.05093"
  },
  {
    "geonameid": "2164495",
    "country": "AU",
    "name": "Greenvale",
    "lat": "-37.63333",
    "lng": "144.86667"
  },
  {
    "geonameid": "2164515",
    "country": "AU",
    "name": "Greensborough",
    "lat": "-37.70462",
    "lng": "145.10302"
  },
  {
    "geonameid": "2164691",
    "country": "AU",
    "name": "Granville",
    "lat": "-33.8406",
    "lng": "151.00748"
  },
  {
    "geonameid": "2164837",
    "country": "AU",
    "name": "Goulburn",
    "lat": "-34.75155",
    "lng": "149.72086"
  },
  {
    "geonameid": "2165087",
    "country": "AU",
    "name": "Gold Coast",
    "lat": "-28.00029",
    "lng": "153.43088"
  },
  {
    "geonameid": "2165171",
    "country": "AU",
    "name": "Glen Waverley",
    "lat": "-37.87811",
    "lng": "145.16476"
  },
  {
    "geonameid": "2165200",
    "country": "AU",
    "name": "Glenroy",
    "lat": "-37.7",
    "lng": "144.93333"
  },
  {
    "geonameid": "2165290",
    "country": "AU",
    "name": "Glen Iris",
    "lat": "-37.86667",
    "lng": "145.06667"
  },
  {
    "geonameid": "2165329",
    "country": "AU",
    "name": "Glenferrie",
    "lat": "-37.83333",
    "lng": "145.05"
  },
  {
    "geonameid": "2165478",
    "country": "AU",
    "name": "Gladstone",
    "lat": "-23.84852",
    "lng": "151.25775"
  },
  {
    "geonameid": "2165798",
    "country": "AU",
    "name": "Geelong",
    "lat": "-38.14711",
    "lng": "144.36069"
  },
  {
    "geonameid": "2166143",
    "country": "AU",
    "name": "Frankston East",
    "lat": "-38.13333",
    "lng": "145.13333"
  },
  {
    "geonameid": "2166144",
    "country": "AU",
    "name": "Frankston",
    "lat": "-38.14458",
    "lng": "145.12291"
  },
  {
    "geonameid": "2166370",
    "country": "AU",
    "name": "Footscray",
    "lat": "-37.8",
    "lng": "144.9"
  },
  {
    "geonameid": "2166952",
    "country": "AU",
    "name": "Fairfield",
    "lat": "-33.86667",
    "lng": "150.95"
  },
  {
    "geonameid": "2167208",
    "country": "AU",
    "name": "Essendon",
    "lat": "-37.74981",
    "lng": "144.9109"
  },
  {
    "geonameid": "2167279",
    "country": "AU",
    "name": "Epping",
    "lat": "-37.65",
    "lng": "145.03333"
  },
  {
    "geonameid": "2167280",
    "country": "AU",
    "name": "Epping",
    "lat": "-33.77271",
    "lng": "151.08184"
  },
  {
    "geonameid": "2167312",
    "country": "AU",
    "name": "Engadine",
    "lat": "-34.06564",
    "lng": "151.01266"
  },
  {
    "geonameid": "2167445",
    "country": "AU",
    "name": "Eltham",
    "lat": "-37.73333",
    "lng": "145.15"
  },
  {
    "geonameid": "2167651",
    "country": "AU",
    "name": "Eight Mile Plains",
    "lat": "-27.58333",
    "lng": "153.1"
  },
  {
    "geonameid": "2167840",
    "country": "AU",
    "name": "Eastwood",
    "lat": "-33.79176",
    "lng": "151.08057"
  },
  {
    "geonameid": "2167949",
    "country": "AU",
    "name": "Earlwood",
    "lat": "-33.9209",
    "lng": "151.12506"
  },
  {
    "geonameid": "2168305",
    "country": "AU",
    "name": "Dubbo",
    "lat": "-32.24295",
    "lng": "148.60484"
  },
  {
    "geonameid": "2168537",
    "country": "AU",
    "name": "Doreen",
    "lat": "-37.6",
    "lng": "145.15"
  },
  {
    "geonameid": "2168605",
    "country": "AU",
    "name": "Doncaster East",
    "lat": "-37.78761",
    "lng": "145.14888"
  },
  {
    "geonameid": "2168607",
    "country": "AU",
    "name": "Doncaster",
    "lat": "-37.78828",
    "lng": "145.12373"
  },
  {
    "geonameid": "2169145",
    "country": "AU",
    "name": "Deer Park",
    "lat": "-37.76722",
    "lng": "144.76657"
  },
  {
    "geonameid": "2169220",
    "country": "AU",
    "name": "Deception Bay",
    "lat": "-27.19354",
    "lng": "153.02631"
  },
  {
    "geonameid": "2169460",
    "country": "AU",
    "name": "Dandenong",
    "lat": "-37.98333",
    "lng": "145.2"
  },
  {
    "geonameid": "2169867",
    "country": "AU",
    "name": "Croydon",
    "lat": "-37.8",
    "lng": "145.28333"
  },
  {
    "geonameid": "2169956",
    "country": "AU",
    "name": "Cronulla",
    "lat": "-34.06251",
    "lng": "151.14961"
  },
  {
    "geonameid": "2170079",
    "country": "AU",
    "name": "Cranbourne",
    "lat": "-38.11342",
    "lng": "145.28326"
  },
  {
    "geonameid": "2170089",
    "country": "AU",
    "name": "Craigieburn",
    "lat": "-37.6",
    "lng": "144.95"
  },
  {
    "geonameid": "2170307",
    "country": "AU",
    "name": "Corio",
    "lat": "-38.08333",
    "lng": "144.38333"
  },
  {
    "geonameid": "2170435",
    "country": "AU",
    "name": "Coorparoo",
    "lat": "-27.49325",
    "lng": "153.05826"
  },
  {
    "geonameid": "2170697",
    "country": "AU",
    "name": "Coogee",
    "lat": "-33.9205",
    "lng": "151.25522"
  },
  {
    "geonameid": "2171085",
    "country": "AU",
    "name": "Coffs Harbour",
    "lat": "-30.29626",
    "lng": "153.11351"
  },
  {
    "geonameid": "2171168",
    "country": "AU",
    "name": "Coburg",
    "lat": "-37.75",
    "lng": "144.96667"
  },
  {
    "geonameid": "2171400",
    "country": "AU",
    "name": "Clayton",
    "lat": "-37.91667",
    "lng": "145.11667"
  },
  {
    "geonameid": "2171507",
    "country": "AU",
    "name": "Wollongong",
    "lat": "-34.424",
    "lng": "150.89345"
  },
  {
    "geonameid": "2171707",
    "country": "AU",
    "name": "Chatswood",
    "lat": "-33.8",
    "lng": "151.18333"
  },
  {
    "geonameid": "2171845",
    "country": "AU",
    "name": "Cessnock",
    "lat": "-32.83211",
    "lng": "151.35623"
  },
  {
    "geonameid": "2171945",
    "country": "AU",
    "name": "Caulfield North",
    "lat": "-37.8739",
    "lng": "145.02485"
  },
  {
    "geonameid": "2172111",
    "country": "AU",
    "name": "Castle Hill",
    "lat": "-33.73333",
    "lng": "151"
  },
  {
    "geonameid": "2172191",
    "country": "AU",
    "name": "Carrum Downs",
    "lat": "-38.09968",
    "lng": "145.17248"
  },
  {
    "geonameid": "2172264",
    "country": "AU",
    "name": "Carnegie",
    "lat": "-37.89359",
    "lng": "145.05534"
  },
  {
    "geonameid": "2172293",
    "country": "AU",
    "name": "Carlton",
    "lat": "-37.8",
    "lng": "144.96667"
  },
  {
    "geonameid": "2172303",
    "country": "AU",
    "name": "Carlingford",
    "lat": "-33.78269",
    "lng": "151.04888"
  },
  {
    "geonameid": "2172434",
    "country": "AU",
    "name": "Capalaba",
    "lat": "-27.54333",
    "lng": "153.20287"
  },
  {
    "geonameid": "2172517",
    "country": "AU",
    "name": "Canberra",
    "lat": "-35.28346",
    "lng": "149.12807"
  },
  {
    "geonameid": "2172686",
    "country": "AU",
    "name": "Camberwell",
    "lat": "-37.84205",
    "lng": "145.0694"
  },
  {
    "geonameid": "2172797",
    "country": "AU",
    "name": "Cairns",
    "lat": "-16.92366",
    "lng": "145.76613"
  },
  {
    "geonameid": "2172832",
    "country": "AU",
    "name": "Caboolture",
    "lat": "-27.08465",
    "lng": "152.9511"
  },
  {
    "geonameid": "2172995",
    "country": "AU",
    "name": "Burwood",
    "lat": "-33.88333",
    "lng": "151.1"
  },
  {
    "geonameid": "2173125",
    "country": "AU",
    "name": "Burnie",
    "lat": "-41.05584",
    "lng": "145.90375"
  },
  {
    "geonameid": "2173323",
    "country": "AU",
    "name": "Bundaberg",
    "lat": "-24.86621",
    "lng": "152.3479"
  },
  {
    "geonameid": "2173605",
    "country": "AU",
    "name": "Buderim",
    "lat": "-26.68443",
    "lng": "153.05705"
  },
  {
    "geonameid": "2173741",
    "country": "AU",
    "name": "Brunswick",
    "lat": "-37.76667",
    "lng": "144.96667"
  },
  {
    "geonameid": "2173911",
    "country": "AU",
    "name": "Broken Hill",
    "lat": "-31.9652",
    "lng": "141.4512"
  },
  {
    "geonameid": "2174003",
    "country": "AU",
    "name": "Brisbane",
    "lat": "-27.46794",
    "lng": "153.02809"
  },
  {
    "geonameid": "2174039",
    "country": "AU",
    "name": "Brighton",
    "lat": "-37.90561",
    "lng": "145.00279"
  },
  {
    "geonameid": "2174580",
    "country": "AU",
    "name": "Boronia",
    "lat": "-37.86667",
    "lng": "145.28333"
  },
  {
    "geonameid": "2175411",
    "country": "AU",
    "name": "Blacktown",
    "lat": "-33.76667",
    "lng": "150.91667"
  },
  {
    "geonameid": "2175974",
    "country": "AU",
    "name": "Bexley",
    "lat": "-33.95",
    "lng": "151.11667"
  },
  {
    "geonameid": "2176031",
    "country": "AU",
    "name": "Berwick",
    "lat": "-38.03333",
    "lng": "145.35"
  },
  {
    "geonameid": "2176122",
    "country": "AU",
    "name": "Bentleigh East",
    "lat": "-37.91928",
    "lng": "145.05301"
  },
  {
    "geonameid": "2176123",
    "country": "AU",
    "name": "Bentleigh",
    "lat": "-37.91806",
    "lng": "145.03544"
  },
  {
    "geonameid": "2176187",
    "country": "AU",
    "name": "Bendigo",
    "lat": "-36.75818",
    "lng": "144.28024"
  },
  {
    "geonameid": "2176592",
    "country": "AU",
    "name": "Baulkham Hills",
    "lat": "-33.75881",
    "lng": "150.99292"
  },
  {
    "geonameid": "2176632",
    "country": "AU",
    "name": "Bathurst",
    "lat": "-33.41665",
    "lng": "149.5806"
  },
  {
    "geonameid": "2176934",
    "country": "AU",
    "name": "Banora Point",
    "lat": "-28.21298",
    "lng": "153.53634"
  },
  {
    "geonameid": "2176947",
    "country": "AU",
    "name": "Bankstown",
    "lat": "-33.91667",
    "lng": "151.03333"
  },
  {
    "geonameid": "2177091",
    "country": "AU",
    "name": "Ballarat",
    "lat": "-37.56622",
    "lng": "143.84957"
  },
  {
    "geonameid": "2177233",
    "country": "AU",
    "name": "Bairnsdale",
    "lat": "-37.82289",
    "lng": "147.61041"
  },
  {
    "geonameid": "2177513",
    "country": "AU",
    "name": "Auburn",
    "lat": "-33.85",
    "lng": "151.03333"
  },
  {
    "geonameid": "2177565",
    "country": "AU",
    "name": "Ashfield",
    "lat": "-33.88834",
    "lng": "151.12274"
  },
  {
    "geonameid": "2177576",
    "country": "AU",
    "name": "Ascot Vale",
    "lat": "-37.77988",
    "lng": "144.92276"
  },
  {
    "geonameid": "2177671",
    "country": "AU",
    "name": "Armidale",
    "lat": "-30.50123",
    "lng": "151.66553"
  },
  {
    "geonameid": "2178208",
    "country": "AU",
    "name": "Albany Creek",
    "lat": "-27.35364",
    "lng": "152.96848"
  },
  {
    "geonameid": "2207268",
    "country": "AU",
    "name": "Maroochydore",
    "lat": "-26.66008",
    "lng": "153.09953"
  },
  {
    "geonameid": "2207618",
    "country": "AU",
    "name": "Cheltenham",
    "lat": "-37.96944",
    "lng": "145.04806"
  },
  {
    "geonameid": "2208285",
    "country": "AU",
    "name": "Randwick",
    "lat": "-33.91439",
    "lng": "151.24895"
  },
  {
    "geonameid": "2208305",
    "country": "AU",
    "name": "Dee Why",
    "lat": "-33.7511",
    "lng": "151.28886"
  },
  {
    "geonameid": "2208313",
    "country": "AU",
    "name": "Umina Beach",
    "lat": "-33.52314",
    "lng": "151.31325"
  },
  {
    "geonameid": "6301965",
    "country": "AU",
    "name": "Palmerston",
    "lat": "-12.48602",
    "lng": "130.9833"
  },
  {
    "geonameid": "6354957",
    "country": "AU",
    "name": "Hervey Bay",
    "lat": "-25.28762",
    "lng": "152.76936"
  },
  {
    "geonameid": "6619280",
    "country": "AU",
    "name": "Sydney Central Business District",
    "lat": "-33.86482",
    "lng": "151.20773"
  },
  {
    "geonameid": "6621337",
    "country": "AU",
    "name": "Kingsford",
    "lat": "-33.92399",
    "lng": "151.22749"
  },
  {
    "geonameid": "6693094",
    "country": "AU",
    "name": "Springfield Lakes",
    "lat": "-27.66757",
    "lng": "152.92488"
  },
  {
    "geonameid": "6943558",
    "country": "AU",
    "name": "Bracken Ridge",
    "lat": "-27.3171",
    "lng": "153.03097"
  },
  {
    "geonameid": "6943560",
    "country": "AU",
    "name": "Kallangur",
    "lat": "-27.25204",
    "lng": "152.99226"
  },
  {
    "geonameid": "6943562",
    "country": "AU",
    "name": "North Lakes",
    "lat": "-27.22426",
    "lng": "153.02075"
  },
  {
    "geonameid": "6943585",
    "country": "AU",
    "name": "The Gap",
    "lat": "-27.44187",
    "lng": "152.93861"
  },
  {
    "geonameid": "7281805",
    "country": "AU",
    "name": "Caroline Springs",
    "lat": "-37.74124",
    "lng": "144.73631"
  },
  {
    "geonameid": "7281807",
    "country": "AU",
    "name": "Hoppers Crossing",
    "lat": "-37.88264",
    "lng": "144.7003"
  },
  {
    "geonameid": "7281838",
    "country": "AU",
    "name": "Logan City",
    "lat": "-27.63917",
    "lng": "153.10944"
  },
  {
    "geonameid": "7281839",
    "country": "AU",
    "name": "Carindale",
    "lat": "-27.50578",
    "lng": "153.10236"
  },
  {
    "geonameid": "7281840",
    "country": "AU",
    "name": "Parramatta",
    "lat": "-33.8178",
    "lng": "151.00348"
  },
  {
    "geonameid": "7281850",
    "country": "AU",
    "name": "Ferntree Gully",
    "lat": "-37.88461",
    "lng": "145.29539"
  },
  {
    "geonameid": "7302628",
    "country": "AU",
    "name": "Adelaide Hills",
    "lat": "-34.91119",
    "lng": "138.70735"
  },
  {
    "geonameid": "7302631",
    "country": "AU",
    "name": "Canning Vale",
    "lat": "-32.05799",
    "lng": "115.91814"
  },
  {
    "geonameid": "7302642",
    "country": "AU",
    "name": "Glenmore Park",
    "lat": "-33.79068",
    "lng": "150.6693"
  },
  {
    "geonameid": "7302683",
    "country": "AU",
    "name": "Southbank",
    "lat": "-37.8228",
    "lng": "144.96434"
  },
  {
    "geonameid": "7521471",
    "country": "AU",
    "name": "Docklands",
    "lat": "-37.8149",
    "lng": "144.95052"
  },
  {
    "geonameid": "7576707",
    "country": "AU",
    "name": "Helensvale",
    "lat": "-27.91828",
    "lng": "153.33275"
  },
  {
    "geonameid": "7932620",
    "country": "AU",
    "name": "Elwood",
    "lat": "-37.88214",
    "lng": "144.98215"
  },
  {
    "geonameid": "7932629",
    "country": "AU",
    "name": "Balwyn North",
    "lat": "-37.79086",
    "lng": "145.09386"
  },
  {
    "geonameid": "7932638",
    "country": "AU",
    "name": "Malvern East",
    "lat": "-37.87397",
    "lng": "145.04253"
  },
  {
    "geonameid": "7932646",
    "country": "AU",
    "name": "Brighton East",
    "lat": "-37.90232",
    "lng": "145.01734"
  },
  {
    "geonameid": "7932670",
    "country": "AU",
    "name": "Redbank Plains",
    "lat": "-27.64613",
    "lng": "152.85965"
  },
  {
    "geonameid": "8012683",
    "country": "AU",
    "name": "Labrador",
    "lat": "-27.94402",
    "lng": "153.39815"
  },
  {
    "geonameid": "8015209",
    "country": "AU",
    "name": "St Albans",
    "lat": "-37.74496",
    "lng": "144.80049"
  },
  {
    "geonameid": "8347325",
    "country": "AU",
    "name": "Endeavour Hills",
    "lat": "-37.97695",
    "lng": "145.25866"
  },
  {
    "geonameid": "8347736",
    "country": "AU",
    "name": "Kellyville",
    "lat": "-33.71028",
    "lng": "150.95095"
  },
  {
    "geonameid": "8347847",
    "country": "AU",
    "name": "Taylors Lakes",
    "lat": "-37.69863",
    "lng": "144.78631"
  },
  {
    "geonameid": "8347871",
    "country": "AU",
    "name": "Cherrybrook",
    "lat": "-33.72197",
    "lng": "151.04607"
  },
  {
    "geonameid": "8347896",
    "country": "AU",
    "name": "Roxburgh Park",
    "lat": "-37.62581",
    "lng": "144.92555"
  },
  {
    "geonameid": "8347914",
    "country": "AU",
    "name": "Prestons",
    "lat": "-33.94185",
    "lng": "150.8717"
  },
  {
    "geonameid": "8348078",
    "country": "AU",
    "name": "Wyndham Vale",
    "lat": "-37.89138",
    "lng": "144.62368"
  },
  {
    "geonameid": "8348081",
    "country": "AU",
    "name": "Ballajura",
    "lat": "-31.84062",
    "lng": "115.89549"
  },
  {
    "geonameid": "8348101",
    "country": "AU",
    "name": "Willetton",
    "lat": "-32.05251",
    "lng": "115.88782"
  },
  {
    "geonameid": "8348142",
    "country": "AU",
    "name": "Glenwood",
    "lat": "-33.73333",
    "lng": "150.93284"
  },
  {
    "geonameid": "8348460",
    "country": "AU",
    "name": "Cabramatta",
    "lat": "-33.89743",
    "lng": "150.93446"
  },
  {
    "geonameid": "8348466",
    "country": "AU",
    "name": "Campsie",
    "lat": "-33.9125",
    "lng": "151.10279"
  },
  {
    "geonameid": "8348477",
    "country": "AU",
    "name": "Casula",
    "lat": "-33.95222",
    "lng": "150.89949"
  },
  {
    "geonameid": "8348511",
    "country": "AU",
    "name": "Cranebrook",
    "lat": "-33.7061",
    "lng": "150.7094"
  },
  {
    "geonameid": "8348574",
    "country": "AU",
    "name": "Greenacre",
    "lat": "-33.90034",
    "lng": "151.05563"
  },
  {
    "geonameid": "8348582",
    "country": "AU",
    "name": "Greystanes",
    "lat": "-33.82346",
    "lng": "150.94607"
  },
  {
    "geonameid": "8348596",
    "country": "AU",
    "name": "Ellenbrook",
    "lat": "-31.76737",
    "lng": "115.96936"
  },
  {
    "geonameid": "8348615",
    "country": "AU",
    "name": "Alexandra Hills",
    "lat": "-27.53221",
    "lng": "153.22889"
  },
  {
    "geonameid": "8348765",
    "country": "AU",
    "name": "Calamvale",
    "lat": "-27.62329",
    "lng": "153.04785"
  },
  {
    "geonameid": "8348768",
    "country": "AU",
    "name": "Yagoona",
    "lat": "-33.9049",
    "lng": "151.01996"
  },
  {
    "geonameid": "8348824",
    "country": "AU",
    "name": "Highton",
    "lat": "-38.17058",
    "lng": "144.3114"
  },
  {
    "geonameid": "8348920",
    "country": "AU",
    "name": "Pacific Pines",
    "lat": "-27.93994",
    "lng": "153.31436"
  },
  {
    "geonameid": "8348930",
    "country": "AU",
    "name": "Robina",
    "lat": "-28.07071",
    "lng": "153.39329"
  },
  {
    "geonameid": "8349003",
    "country": "AU",
    "name": "Paralowie",
    "lat": "-34.75705",
    "lng": "138.60819"
  },
  {
    "geonameid": "8349017",
    "country": "AU",
    "name": "Baldivis",
    "lat": "-32.32889",
    "lng": "115.83047"
  },
  {
    "geonameid": "8349051",
    "country": "AU",
    "name": "Dianella",
    "lat": "-31.88822",
    "lng": "115.87186"
  },
  {
    "geonameid": "8349052",
    "country": "AU",
    "name": "Duncraig",
    "lat": "-31.83291",
    "lng": "115.7759"
  },
  {
    "geonameid": "8349083",
    "country": "AU",
    "name": "Morley",
    "lat": "-31.88775",
    "lng": "115.9099"
  },
  {
    "geonameid": "8349108",
    "country": "AU",
    "name": "Thornlie",
    "lat": "-32.06003",
    "lng": "115.955"
  },
  {
    "geonameid": "8349177",
    "country": "AU",
    "name": "Landsdale",
    "lat": "-31.8075",
    "lng": "115.86599"
  },
  {
    "geonameid": "8349222",
    "country": "AU",
    "name": "Punchbowl",
    "lat": "-33.92893",
    "lng": "151.05111"
  },
  {
    "geonameid": "8349238",
    "country": "AU",
    "name": "Parafield Gardens",
    "lat": "-34.78254",
    "lng": "138.61077"
  },
  {
    "geonameid": "8349243",
    "country": "AU",
    "name": "Hillside",
    "lat": "-37.69047",
    "lng": "144.74172"
  },
  {
    "geonameid": "8349321",
    "country": "AU",
    "name": "St Clair",
    "lat": "-33.79728",
    "lng": "150.7847"
  },
  {
    "geonameid": "8349354",
    "country": "AU",
    "name": "Kirwan",
    "lat": "-19.30323",
    "lng": "146.72531"
  },
  {
    "geonameid": "8349381",
    "country": "AU",
    "name": "Bundoora",
    "lat": "-37.69825",
    "lng": "145.05967"
  },
  {
    "geonameid": "9957340",
    "country": "AU",
    "name": "Forest Lake",
    "lat": "-27.62563",
    "lng": "152.96883"
  },
  {
    "geonameid": "9957350",
    "country": "AU",
    "name": "Sunnybank Hills",
    "lat": "-27.61025",
    "lng": "153.05388"
  },
  {
    "geonameid": "9958114",
    "country": "AU",
    "name": "Rochedale South",
    "lat": "-27.59521",
    "lng": "153.12332"
  },
  {
    "geonameid": "9972422",
    "country": "AU",
    "name": "Keilor East",
    "lat": "-37.73261",
    "lng": "144.86504"
  },
  {
    "geonameid": "9972515",
    "country": "AU",
    "name": "Cranbourne East",
    "lat": "-38.11531",
    "lng": "145.29814"
  },
  {
    "geonameid": "9972516",
    "country": "AU",
    "name": "Cranbourne North",
    "lat": "-38.07758",
    "lng": "145.29871"
  },
  {
    "geonameid": "9972517",
    "country": "AU",
    "name": "Cranbourne West",
    "lat": "-38.0965",
    "lng": "145.26707"
  },
  {
    "geonameid": "9972518",
    "country": "AU",
    "name": "Narre Warren South",
    "lat": "-38.04369",
    "lng": "145.2923"
  },
  {
    "geonameid": "9972522",
    "country": "AU",
    "name": "Dandenong North",
    "lat": "-37.96649",
    "lng": "145.2081"
  },
  {
    "geonameid": "9972527",
    "country": "AU",
    "name": "Frankston South",
    "lat": "-38.16604",
    "lng": "145.13643"
  },
  {
    "geonameid": "9972578",
    "country": "AU",
    "name": "Sunshine West",
    "lat": "-37.79117",
    "lng": "144.81637"
  },
  {
    "geonameid": "9972579",
    "country": "AU",
    "name": "Altona Meadows",
    "lat": "-37.88413",
    "lng": "144.78367"
  },
  {
    "geonameid": "9972586",
    "country": "AU",
    "name": "Taylors Hill",
    "lat": "-37.70988",
    "lng": "144.75483"
  },
  {
    "geonameid": "9972762",
    "country": "AU",
    "name": "Hurstville",
    "lat": "-33.9677",
    "lng": "151.10149"
  },
  {
    "geonameid": "9972964",
    "country": "AU",
    "name": "West Pennant Hills",
    "lat": "-33.7457",
    "lng": "151.04764"
  },
  {
    "geonameid": "11523810",
    "country": "AU",
    "name": "Melbourne City Centre",
    "lat": "-37.81501",
    "lng": "144.96657"
  },
  {
    "geonameid": "11523825",
    "country": "AU",
    "name": "Adelaide city centre",
    "lat": "-34.92873",
    "lng": "138.60334"
  },
  {
    "geonameid": "11523847",
    "country": "AU",
    "name": "Wollongong city centre",
    "lat": "-34.4279",
    "lng": "150.89268"
  },
  {
    "geonameid": "3577072",
    "country": "AW",
    "name": "Tanki Leendert",
    "lat": "12.53914",
    "lng": "-70.02004"
  },
  {
    "geonameid": "3577089",
    "country": "AW",
    "name": "San Nicolas",
    "lat": "12.43624",
    "lng": "-69.90713"
  },
  {
    "geonameid": "3577154",
    "country": "AW",
    "name": "Oranjestad",
    "lat": "12.52398",
    "lng": "-70.02703"
  },
  {
    "geonameid": "3041732",
    "country": "AX",
    "name": "Mariehamn",
    "lat": "60.09726",
    "lng": "19.93481"
  },
  {
    "geonameid": "146970",
    "country": "AZ",
    "name": "Xankandi",
    "lat": "39.8177",
    "lng": "46.7528"
  },
  {
    "geonameid": "147059",
    "country": "AZ",
    "name": "Əhmədbəyli",
    "lat": "39.88074",
    "lng": "48.39158"
  },
  {
    "geonameid": "147105",
    "country": "AZ",
    "name": "Şuşa",
    "lat": "39.76006",
    "lng": "46.74989"
  },
  {
    "geonameid": "147271",
    "country": "AZ",
    "name": "Salyan",
    "lat": "39.59621",
    "lng": "48.98479"
  },
  {
    "geonameid": "147288",
    "country": "AZ",
    "name": "Saatlı",
    "lat": "39.93214",
    "lng": "48.36892"
  },
  {
    "geonameid": "147425",
    "country": "AZ",
    "name": "Neftçala",
    "lat": "39.3768",
    "lng": "49.247"
  },
  {
    "geonameid": "147429",
    "country": "AZ",
    "name": "Nakhchivan",
    "lat": "39.20889",
    "lng": "45.41222"
  },
  {
    "geonameid": "147622",
    "country": "AZ",
    "name": "Lankaran",
    "lat": "38.75428",
    "lng": "48.85062"
  },
  {
    "geonameid": "147982",
    "country": "AZ",
    "name": "Imishli",
    "lat": "39.87095",
    "lng": "48.05995"
  },
  {
    "geonameid": "148106",
    "country": "AZ",
    "name": "Fizuli",
    "lat": "39.60094",
    "lng": "47.14529"
  },
  {
    "geonameid": "148290",
    "country": "AZ",
    "name": "Jalilabad",
    "lat": "39.20963",
    "lng": "48.49186"
  },
  {
    "geonameid": "148340",
    "country": "AZ",
    "name": "Pushkino",
    "lat": "39.45833",
    "lng": "48.545"
  },
  {
    "geonameid": "148354",
    "country": "AZ",
    "name": "Beylagan",
    "lat": "39.77556",
    "lng": "47.61861"
  },
  {
    "geonameid": "148445",
    "country": "AZ",
    "name": "Astara",
    "lat": "38.45598",
    "lng": "48.87498"
  },
  {
    "geonameid": "148565",
    "country": "AZ",
    "name": "Şirvan",
    "lat": "39.93778",
    "lng": "48.929"
  },
  {
    "geonameid": "148619",
    "country": "AZ",
    "name": "Ağdam",
    "lat": "39.99096",
    "lng": "46.92736"
  },
  {
    "geonameid": "584596",
    "country": "AZ",
    "name": "Zaqatala",
    "lat": "41.6316",
    "lng": "46.64479"
  },
  {
    "geonameid": "584614",
    "country": "AZ",
    "name": "Zabrat",
    "lat": "40.47746",
    "lng": "49.94174"
  },
  {
    "geonameid": "584649",
    "country": "AZ",
    "name": "Yevlakh",
    "lat": "40.61832",
    "lng": "47.15014"
  },
  {
    "geonameid": "584716",
    "country": "AZ",
    "name": "Göygöl",
    "lat": "40.58584",
    "lng": "46.3189"
  },
  {
    "geonameid": "584717",
    "country": "AZ",
    "name": "Xaçmaz",
    "lat": "41.46426",
    "lng": "48.80565"
  },
  {
    "geonameid": "584791",
    "country": "AZ",
    "name": "Ujar",
    "lat": "40.51902",
    "lng": "47.65423"
  },
  {
    "geonameid": "584871",
    "country": "AZ",
    "name": "Terter",
    "lat": "40.34201",
    "lng": "46.93161"
  },
  {
    "geonameid": "584923",
    "country": "AZ",
    "name": "Sumqayıt",
    "lat": "40.58972",
    "lng": "49.66861"
  },
  {
    "geonameid": "585103",
    "country": "AZ",
    "name": "Qaraçuxur",
    "lat": "40.39667",
    "lng": "49.97361"
  },
  {
    "geonameid": "585152",
    "country": "AZ",
    "name": "Shamkhor",
    "lat": "40.82975",
    "lng": "46.0178"
  },
  {
    "geonameid": "585156",
    "country": "AZ",
    "name": "Shamakhi",
    "lat": "40.63141",
    "lng": "48.64137"
  },
  {
    "geonameid": "585170",
    "country": "AZ",
    "name": "Sheki",
    "lat": "41.19194",
    "lng": "47.17056"
  },
  {
    "geonameid": "585184",
    "country": "AZ",
    "name": "Sabunçu",
    "lat": "40.4425",
    "lng": "49.94806"
  },
  {
    "geonameid": "585187",
    "country": "AZ",
    "name": "Sabirabad",
    "lat": "40.00869",
    "lng": "48.47701"
  },
  {
    "geonameid": "585220",
    "country": "AZ",
    "name": "Qusar",
    "lat": "41.4275",
    "lng": "48.4302"
  },
  {
    "geonameid": "585221",
    "country": "AZ",
    "name": "Quba",
    "lat": "41.36108",
    "lng": "48.51341"
  },
  {
    "geonameid": "585225",
    "country": "AZ",
    "name": "Hacıqabul",
    "lat": "40.03874",
    "lng": "48.94286"
  },
  {
    "geonameid": "585226",
    "country": "AZ",
    "name": "Qazax",
    "lat": "41.09246",
    "lng": "45.36561"
  },
  {
    "geonameid": "585379",
    "country": "AZ",
    "name": "Hacı Zeynalabdin",
    "lat": "40.62333",
    "lng": "49.55861"
  },
  {
    "geonameid": "585514",
    "country": "AZ",
    "name": "Mingelchaur",
    "lat": "40.76395",
    "lng": "47.05953"
  },
  {
    "geonameid": "585557",
    "country": "AZ",
    "name": "Maştağa",
    "lat": "40.52983",
    "lng": "50.00616"
  },
  {
    "geonameid": "585568",
    "country": "AZ",
    "name": "Mardakan",
    "lat": "40.49182",
    "lng": "50.14292"
  },
  {
    "geonameid": "585630",
    "country": "AZ",
    "name": "Lokbatan",
    "lat": "40.3256",
    "lng": "49.73376"
  },
  {
    "geonameid": "585763",
    "country": "AZ",
    "name": "Kyurdarmir",
    "lat": "40.34257",
    "lng": "48.15649"
  },
  {
    "geonameid": "585915",
    "country": "AZ",
    "name": "Khirdalan",
    "lat": "40.44808",
    "lng": "49.75502"
  },
  {
    "geonameid": "586340",
    "country": "AZ",
    "name": "Yeni Suraxanı",
    "lat": "40.43026",
    "lng": "50.03598"
  },
  {
    "geonameid": "586427",
    "country": "AZ",
    "name": "Göyçay",
    "lat": "40.65055",
    "lng": "47.74219"
  },
  {
    "geonameid": "586429",
    "country": "AZ",
    "name": "Hövsan",
    "lat": "40.37444",
    "lng": "50.08528"
  },
  {
    "geonameid": "586523",
    "country": "AZ",
    "name": "Ganja",
    "lat": "40.68278",
    "lng": "46.36056"
  },
  {
    "geonameid": "586763",
    "country": "AZ",
    "name": "Divichibazar",
    "lat": "41.20117",
    "lng": "48.98712"
  },
  {
    "geonameid": "586925",
    "country": "AZ",
    "name": "Buzovna",
    "lat": "40.51903",
    "lng": "50.11438"
  },
  {
    "geonameid": "586968",
    "country": "AZ",
    "name": "Biny Selo",
    "lat": "40.45076",
    "lng": "50.08686"
  },
  {
    "geonameid": "587057",
    "country": "AZ",
    "name": "Barda",
    "lat": "40.37577",
    "lng": "47.12619"
  },
  {
    "geonameid": "587078",
    "country": "AZ",
    "name": "Bilajari",
    "lat": "40.4444",
    "lng": "49.80566"
  },
  {
    "geonameid": "587084",
    "country": "AZ",
    "name": "Baku",
    "lat": "40.37767",
    "lng": "49.89201"
  },
  {
    "geonameid": "587261",
    "country": "AZ",
    "name": "Amirdzhan",
    "lat": "40.42639",
    "lng": "49.98361"
  },
  {
    "geonameid": "587361",
    "country": "AZ",
    "name": "Aghsu",
    "lat": "40.57028",
    "lng": "48.40087"
  },
  {
    "geonameid": "587378",
    "country": "AZ",
    "name": "Ağdaş",
    "lat": "40.64699",
    "lng": "47.4738"
  },
  {
    "geonameid": "587384",
    "country": "AZ",
    "name": "Agdzhabedy",
    "lat": "40.05015",
    "lng": "47.45937"
  },
  {
    "geonameid": "824003",
    "country": "AZ",
    "name": "Bakıxanov",
    "lat": "40.41894",
    "lng": "49.96693"
  },
  {
    "geonameid": "3186573",
    "country": "BA",
    "name": "Zenica",
    "lat": "44.20169",
    "lng": "17.90397"
  },
  {
    "geonameid": "3187609",
    "country": "BA",
    "name": "Visoko",
    "lat": "43.98889",
    "lng": "18.17806"
  },
  {
    "geonameid": "3188225",
    "country": "BA",
    "name": "Velika Kladuša",
    "lat": "45.18497",
    "lng": "15.80579"
  },
  {
    "geonameid": "3188582",
    "country": "BA",
    "name": "Tuzla",
    "lat": "44.53842",
    "lng": "18.66709"
  },
  {
    "geonameid": "3188893",
    "country": "BA",
    "name": "Trebinje",
    "lat": "42.71197",
    "lng": "18.34362"
  },
  {
    "geonameid": "3188924",
    "country": "BA",
    "name": "Travnik",
    "lat": "44.22637",
    "lng": "17.66583"
  },
  {
    "geonameid": "3191281",
    "country": "BA",
    "name": "Sarajevo",
    "lat": "43.84864",
    "lng": "18.35644"
  },
  {
    "geonameid": "3192409",
    "country": "BA",
    "name": "Prijedor",
    "lat": "44.97991",
    "lng": "16.71401"
  },
  {
    "geonameid": "3194828",
    "country": "BA",
    "name": "Mostar",
    "lat": "43.34333",
    "lng": "17.80806"
  },